id_ban_position,id_ban_adresse,cle_interop,id_ban_group,id_fantoir,numero,suffixe,nom_voie,code_postal,nom_commune,code_insee,nom_complementaire,x,y,lon,lat,typ_loc,source,date_der_maj
ban-position-4b7dc5279c2744e6bb4bb74f29f56204,ban-housenumber-ab877598b43848dcb281b3ccaac3374f,40141_0040_113,ban-group-3a9636e8a9b146e6a7485ecee7a1e7e3,401410040,113,,ROUTE DE CASSIET,40250,Lahosse,40141,,393848.582758476,6297503.76508665,-0.799214,43.710265,parcel,dgfip,2018-10-20
ban-position-55501c02aa414b1593476d0660103be6,ban-housenumber-fc733c8316e3499a862d508bca85e56e,40135_0021_48,ban-group-f66783b9e17b44419822e34f58ed2b22,401350021,48,,Chemin des Plantons,40420,Labrit,40135,,416314.786481299,6340291.74383222,-0.544624,44.104314,segment,ign,2018-10-20
ban-position-8b3b0dcc7c7047e29a5d33132a82412b,ban-housenumber-4e2eda5bdca749aa81044a1b69a4395f,40296_0159_238_t,ban-group-49e4b5b4e1d74625b12422ad81c74a01,402960159,238,T,Chemin de Martichot,40510,Seignosse,40296,,348501.924627562,6297586.29393045,-1.360934,43.689932,segment,ign,2018-10-20
ban-position-b3420a92772a4440a05b55301ae8b387,ban-housenumber-0c4fd606805f45899ac10c7ffe3a758c,40245_0064_1388,ban-group-bbc89c155ab64abd8825f282dffe4a12,402450064,1388,,Rue de la Grande-lande,40120,Roquefort,40245,,435104.11623496603,6332524.287596299,-0.306076,44.041804,parcel,dgfip,2018-10-20
ban-position-d21a0bc206bc47f386ba5868c80c9667,ban-housenumber-263e081fd52d4cc8a0306a9bc4466a4e,40065_5995_2121,ban-group-4d47c3f8696a46069871ae31efafcbaf,400655995,2121,,PLACE DE L HOTEL DE VILLE,40130,Capbreton,40065,,342544.680768065,6292414.56456206,-1.431093,43.640485999999996,parcel,dgfip,2018-10-20
ban-position-4d736d06cb294d0c80fdd55f5a3bd374,ban-housenumber-f4019d4f97da423dbd91c51ef442e2bd,40279_0590_651_x,ban-group-5e4279f5102147edbeda2aad1c94c649,402790590,651,X,BOULEVARD SAINT VINCENT DE PAUL,40990,Saint-Paul-lès-Dax,40279,,374232.26682713104,6300357.34656972,-1.044044,43.727148,parcel,dgfip,2018-10-20
ban-position-1c9cc2efa15b4b24a3bcedf30a84b4fb,ban-housenumber-5a50466244944d75a7bb64cfbc3b78d8,40217_1224_113,ban-group-8862cdd86b8d4e75a83adb1e76380989,402171224,113,,CHEMIN DU PIAOU,40160,Parentis-en-Born,40217,,373432.479908631,6368765.46329485,-1.097988,44.341635,entrance,ign,2018-10-20
ban-position-8d375a8149f743218a7438b336118219,ban-housenumber-09aeeec2bb984f2c97d606e6719e7b36,40088_1805_7,ban-group-ca1b7fc0d1b84be3ab7780cae2fc9d1a,400881805,7,,Rue des Salines,40100,Dax,40088,,373328.12491977704,6297283.17479828,-1.053291,43.699104999999996,parcel,dgfip,2018-10-20
ban-position-bf72e587da294c20af35b1a204652726,ban-housenumber-6274afb1ce1241419f5544afd3687b37,40046_1662_128,ban-group-9b7ea0787b254b14899575137fffa7b8,400461662,128,,Rue des Tchicoys,40600,Biscarrosse,40046,,368577.17740731896,6375035.590513901,-1.1629479999999999,44.395714,parcel,dgfip,2018-10-20
ban-position-294ede7e78cb4a37a5dbb55427e7383c,ban-housenumber-5f65ee6a692b4354b63cb8cc187cedb1,40085_0370_75,ban-group-fdb9b3df11f04f86bb7224db9fbf7d4b,400850370,75,,Route de Sabres,40210,Commensacq,40085,,394484.23464389297,6353129.12568108,-0.8247479999999999,44.210568,parcel,dgfip,2018-10-20
ban-position-efe68aae1b83467aa7eea9ca4538b95d,ban-housenumber-7fdec64e184642a28736a2310e7eaf0d,40187_A100_2,ban-group-5f48178c28f043fb9fc9d4185e56cf09,40187A100,2,,Résidence les Fougères,40660,Moliets-et-Maa,40187,,347865.014739477,6315165.76316052,-1.380908,43.847564,parcel,dgfip,2019-02-17
ban-position-c783498ad02f4da8a59785ae0b0821ff,ban-housenumber-42c52a55ad2b442d85d2f16011c1cd0f,40217_1150_296,ban-group-fd42036fab15413eb29b43a3e9f7c7a5,402171150,296,,CHEMIN DU MOULIN,40160,Parentis-en-Born,40217,,376146.886178198,6368622.60491832,-1.0638940000000001,44.341613,parcel,dgfip,2018-10-20
ban-position-e1d628c423ed4ed49c0ec127d3410b53,ban-housenumber-99d6102e071f4d1088c230cefc209075,40209_0300_0,ban-group-25c57a8ff5ee446a880d3567e422dfb5,402090300,0,,Chemin des Bambous,40440,Ondres,40209,,340959.76822296396,6283968.25623264,-1.444811,43.563808,segment,ign,2018-10-20
ban-position-5bfcee66efb34fdcae068667f36f3f80,ban-housenumber-925124e8b8934bcf89bf0adfbeb10230,40328_0087_11,ban-group-aefa7155b2e34326980336f3b7df55fc,403280087,11,,IMPASSE DES CHEVREUILS,40480,Vieux-Boucau-les-Bains,40328,,346401.113500894,6308175.20059786,-1.394248,43.784022,parcel,dgfip,2018-10-20
ban-position-f274f4d8888f46e1a9a04bd47d56b5c0,ban-housenumber-8d3ea14490ed4fc19f7cd605a7f112cd,40086_0030_531,ban-group-627a6592f41c4194935cfbda4a22026c,400860030,531,,CHEMIN DE CAMPAS,40500,Coudures,40086,,418871.670401724,6293498.54302388,-0.48691599999999996,43.684647999999996,segment,ign,2018-10-20
ban-position-e515c75486f143ad8cdc0eb26211d274,ban-housenumber-a76438272fef47f5a2472f82c0f8988f,40312_1445_5,ban-group-894d22180e974c34b3b7a896c3325ff9,403121445,5,,Impasse Lavignotte,40220,Tarnos,40312,,338222.991193862,6282239.59375024,-1.477407,43.546889,parcel,dgfip,2018-10-20
ban-position-b244958798c4413c822c35bf684b8105,ban-housenumber-09237d184f754cde8a6a5003bab707ec,40274_0110_150,ban-group-9fc62e7eef2247e8ad6de5952cf4471d,402740110,150,,CHEMIN DE LA GENEVRIERE,40090,Saint-Martin-d'Oney,40274,,408569.07893476204,6319745.08664311,-0.629479,43.91642,segment,ign,2018-10-20
ban-position-b9c5a5f87e41401bb18ae1900a4137a8,ban-housenumber-d859d453b9804c66892c33f94ad02530,40088_0290_5_bis,ban-group-bc53747a31e441839d622a641b118767,400880290,5,BIS,Rue de Borda,40100,Dax,40088,,373395.22927088704,6298460.76538759,-1.0532091963169399,43.7097183036472,segment,ign,2019-07-21
ban-position-44bb38bf3ea44f57a9078ff3f8f73ea3,ban-housenumber-ba788cfac4d84f7fb3c86a8e67ddc1a8,40290_0090_11,ban-group-7c50248aadf946c78103f516c69495df,402900090,11,,CHEMIN LASBORDES,40800,Sarron,40290,,437254.40440472,6281995.9300025,-0.253302287442972,43.5883005633451,segment,ign,2019-07-22
ban-position-e68b69a9e9704ab79006ff6bcfb7bb99,ban-housenumber-1fc456a2fa394223a84551bcfba1ba26,40197_0260_42,ban-group-291299d3abdb4b92b99028167917c9f5,401970260,42,,AVENUE NELSON GASTON,40110,Morcenx-la-Nouvelle,40197,Morcenx,386355.178102794,6333327.89960779,-0.9140729999999999,44.028977000000005,parcel,dgfip,2019-04-02
ban-position-cd6792f2dd4849888d882f60b9f66d51,ban-housenumber-9b38737a986049b38f714fec681056ba,40279_0896_2,ban-group-d3c8013b1a504b67a6008d30380253a5,402790896,2,,RUE DU 22 AOUT 1944,40990,Saint-Paul-lès-Dax,40279,,373693.383241401,6301433.88827017,-1.051407,43.736574,segment,ign,2018-10-20
ban-position-d89b488d16e546afa60e7add74e2791e,ban-housenumber-3f490c57e1c940f39137b7a3111315a7,40197_0254_26,ban-group-2ab130efe0f74357b6a27f3fbf58ca07,401970254,26,,Route de Garrosse,40110,Morcenx-la-Nouvelle,40197,Morcenx,385985.514989724,6333165.36090004,-0.9185780000000001,44.027351,entrance,ign,2019-04-02
ban-position-53d7c15a59fb44b487a2f6c2583b806c,ban-housenumber-82b35e5749e24e7491581275bc556205,40118_0104_3080,ban-group-fb41f11cfb8e42d59ca66c914233ea26,401180104,3080,,Route de Puyoo,40290,Habas,40118,,382767.46373236703,6279819.66727371,-0.925602,43.546462,parcel,dgfip,2018-10-20
ban-position-16c52a6ed8f245c2b9ba315496a7d8a9,ban-housenumber-0edfd844a2ae431f909c8f07b3dac889,40025_0085_291,ban-group-fe7ea6ad04ee4dd4b30e1602231672ec,400250085,291,,CHEMIN DE BILAY,40090,Bascons,40025,,426259.32591257704,6308665.55408536,-0.403503,43.823899,parcel,dgfip,2018-10-20
ban-position-35d9d23594234656960628f7fb572390,ban-housenumber-addf9861553f4a1fa315458c8823b80f,40184_0166_10,ban-group-72ec1b67cfa44159a3e4708e3eccd075,401840166,10,,RUE DU BARESQUIT,40200,Mimizan,40184,,357613.867533886,6355386.61814041,-1.2870030000000001,44.213822,parcel,dgfip,2019-02-02
ban-position-9237ee0217144c27aa98257f35a106df,ban-housenumber-1fe801878085417c8558dc9f653adce4,40279_0212_17,ban-group-9ba70a4fe9604bf58b234b622f641660,402790212,17,,RUE DU GAL DE LARMINAT,40990,Saint-Paul-lès-Dax,40279,,373980.22186184104,6300490.45035388,-1.047252,43.728228,entrance,ign,2018-10-20
ban-position-3431b3a1ad5b4f65b6ff73e22408abb2,ban-housenumber-bac4b665016747a4bacd3c4448af71b9,40088_1370_26,ban-group-2dd85fd87754483bbf3b36034a983504,400881370,26,,Route de Montfort,40100,Dax,40088,,374747.410674196,6297921.59224957,-1.036116,43.705496000000004,parcel,dgfip,2018-10-20
ban-position-da64e4a1cf8e40459c84620273d904a1,ban-housenumber-5a8fa435ab6f4c68a6f4019c5cc28f34,40184_1170_14,ban-group-29f37c68ac404df0b146d924ae326b9a,401841170,14,,Rue des Motteux,40200,Mimizan,40184,,356882.52981762297,6354620.96372413,-1.295621,44.206583,parcel,dgfip,2018-10-20
ban-position-00b7f651822746cd8a6a0f5e2a4fdef5,ban-housenumber-2b3b863d363a4fe38a104c44eb221c5f,40313_0123_311,ban-group-7a9f8643eba84ce5abb7ea0f24909171,403130123,311,,Route de la Taouziole,40400,Tartas,40313,,395286.17862938705,6309457.245098,-0.788513,43.818327000000004,parcel,dgfip,2018-10-20
ban-position-3214ccb04cd04352a5f4e291a004f07a,ban-housenumber-460f5d1c03f84f65a6a7c4755ce00199,40249_0060_63,ban-group-1566cdaba8af436c84657a60293e2928,402490060,63,,Route de Cassare,40250,Saint-Aubin,40249,,402008.884629212,6297149.01530236,-0.697892,43.710561,entrance,ign,2018-10-20
ban-position-9e126915d2274ca18bd3741a1366e8d4,ban-housenumber-a0c082e0042049468be62a9f0b0a0656,40046_0283_238,ban-group-775047c537c347caba405844894402e8,400460283,238,,Allée des Capucines,40600,Biscarrosse,40046,,368589.41817728104,6375977.8484406,-1.163418,44.40419,parcel,dgfip,2018-10-20
ban-position-c96b52de01f24d539e947ce754782b94,ban-housenumber-75a9ab2a5f4347698c1be8d8cbce0f92,40310_2110_36,ban-group-ad4d76bb00634015990b958086e8074c,403102110,36,,AV DU MAL DE LATTRE DE TASSIGNY,40140,Soustons,40310,,351217.722175078,6304019.93706726,-1.331682,43.749081,segment,ign,2018-10-20
ban-position-0f05eebd8e264dddb399d2b90a37d16b,ban-housenumber-1c99730d688746c5b5d6e16a24992be5,40281_0384_94,ban-group-ad00722e123646c19fba3fe076634b03,402810384,94,,Rue Félix Mayol,40280,Saint-Pierre-du-Mont,40281,,416757.236366793,6316192.37054501,-0.525667,43.887817999999996,entrance,ign,2018-10-20
ban-position-dc2823b5ed374b12951e081a8281e67b,ban-housenumber-9bbbfa882ad74952b24fe65957c39596,40065_0945_2,ban-group-ebb3a70279e34917a53fc19ffa248e9d,400650945,2,,Rue Castagnet,40130,Capbreton,40065,,342017.914956619,6293476.04572147,-1.438348,43.649756,entrance,ign,2018-10-20
ban-position-08bcc57be9114624afe62aa52150ecc2,ban-housenumber-b2e9c51f156d4049906718f0499d15a6,40224_0580_1006,ban-group-4bcc69309df4472280e01d7ddc5fb627,402240580,1006,,Avenue du Colonel Paul Lartigue,40300,Peyrehorade,40224,,367044.994952089,6281237.18606149,-1.12073,43.551995,entrance,ign,2018-10-20
ban-position-23a91f6e1a7f43cbabba741c1f2bbc3d,ban-housenumber-77036da3e111471fb688d2c1cf7afcfc,40310_1321_1480,ban-group-d43849996fac4164860535b9dd131b03,403101321,1480,,ROUTE D AZUR,40140,Soustons,40310,,353720.230974615,6306302.64502038,-1.302207,43.770821999999995,entrance,ign,2018-10-20
ban-position-3862b965dbac408a980fcc586b803a4e,ban-housenumber-89b3eaae7e4441ee853631ccb4136a47,40018_A001_95,ban-group-f506fdbc477742b38d2222ff3a1397ca,40018A001,95,,Lotissement du Bourg,40400,Audon,40018,,391922.9674822,6307088.88560415,-0.828836,43.79558,segment,ign,2018-10-20
ban-position-0192a190894b40689fa8e64bf8f8bf3c,ban-housenumber-d201e6ab84ae4b5fa70a461ed9f1e432,40184_1660_3,ban-group-ba3f4ade735842d093046d4a03159977,401841660,3,,Rue des Tamaris,40200,Mimizan,40184,,357181.435660048,6354828.00101106,-1.292027,44.20859,parcel,dgfip,2018-10-20
ban-position-07d301c1dab74d06a13b7544a483fb3b,ban-housenumber-70d662d37eb24b6184a6731d1269aa87,40264_0398_207,ban-group-46751eaf5f274094ba630f0e5e2725c2,402640398,207,,Route de la Plaine,40230,Saint-Jean-de-Marsacq,40264,,356412.55132351705,6290246.64540441,-1.258076,43.627871,parcel,dgfip,2018-10-20
ban-position-3398aff688b94d87acc2345d66b90096,ban-housenumber-3d97db99a65843fa864ecc740bb5bf34,40120_0019_35,ban-group-25cf804cd3dd4743bac96f1acff0edf3,401200019,35,,Porte de la Bastide,40300,Hastingues,40120,,364619.520504988,6279387.01257407,-1.149491,43.534228999999996,parcel,dgfip,2018-10-20
ban-position-ec38c04c98f54a71aedf56b08e4a676e,ban-housenumber-a81c40b20764464d8bc8d2466fa3df93,,ban-group-a823500e6a5f41fabc9e2183da0256e3,,2,,ENCLOS DE LA PISNAILLE,40700,Doazit,40089,,406223.465940862,6294918.89588523,-0.644389992801114,43.692278033738496,segment,ign,2019-07-21
ban-position-fa6ecaaf7a56488bb524f26d9dc593ba,ban-housenumber-0b1bf71871fa422b983fb587ebd59f63,40215_B030_112,ban-group-0e3b72e3dc3e4b8fbc3cfdcfa420ce50,40215B030,112,,Larrivière,40110,Ousse-Suzan,40215,,397966.64168423397,6325165.02880585,-0.764541,43.960678,parcel,dgfip,2019-02-17
ban-position-5e77e47d3e064ed5b3d2affeed8e2ed9,ban-housenumber-e8b099d5afa94698af5672b3576dc8dd,40184_1390_4,ban-group-e9f41d6474df40089b22bbe5de34f23b,401841390,4,,Rue des Piverts,40200,Mimizan,40184,,361979.596049432,6355349.03185534,-1.23242,44.215603,parcel,dgfip,2018-10-20
ban-position-84ff35385e8e467bbdbc2428efbf8ac5,ban-housenumber-48b274aa00f849019dbac00d1ca590dc,40046_0360_606,ban-group-988d69e3d0884d15a9f438c2a7f597ac,400460360,606,,Allée des Chênes,40600,Biscarrosse,40046,,368681.626616198,6376529.86811482,-1.162627,44.409196,entrance,ign,2018-10-20
ban-position-9f5fd3fbe228442c96729e980c24f074,ban-housenumber-080e21f16a3045b09dd821694a5d1cad,40192_0830_6,ban-group-1fc803a4862f48f6998c815a4b22783f,401920830,6,,Rue de la Fraternité,40000,Mont-de-Marsan,40192,,418537.226018123,6316986.3490098,-0.5039779999999999,43.895669,parcel,dgfip,2018-10-20
ban-position-84ddf3bf360641579ce0006acecffaa8,ban-housenumber-685e9e7beb5b4f8999bf79663d8f0a89,40279_0212_10,ban-group-9ba70a4fe9604bf58b234b622f641660,402790212,10,,RUE DU GAL DE LARMINAT,40990,Saint-Paul-lès-Dax,40279,,373938.416946296,6300328.35031758,-1.047667,43.726752000000005,parcel,dgfip,2018-10-20
ban-position-a8a92e627b6641699c8cb6bad486ef47,ban-housenumber-a8b1980027594910aad7a21f3e8608d0,40331_0003_473,ban-group-890f3851698c442ca5edc0c76cd36f24,403310003,473,,Avenue d'Aquitaine,40190,Villeneuve-de-Marsan,40331,,434290.689617356,6316543.88609735,-0.307866,43.897804,parcel,dgfip,2018-10-20
ban-position-35eae5a0768a4bd4947a33d55920ad1a,ban-housenumber-3e2abf14931d416a9c6326264c627e16,40104_B063_11,ban-group-1dc016a7ef624cb4ad360786bad2ca4a,40104B063,11,,GUILHEMANE,40380,Gamarde-les-Bains,40104,,389782.50323365204,6299751.110025,-0.850952,43.728691999999995,parcel,dgfip,2018-10-20
ban-position-96625cf427e943e888d2cfa3f12bdc3d,ban-housenumber-59fb96ee14a6471f9c2c87fd7a68ebe1,40084_0115_981,ban-group-eb1c5e70331841a28434c6cdc24593b4,400840115,981,,Route du Luy,40180,Clermont,40084,,384721.125543561,6292165.88552478,-0.9090229999999999,43.658284,parcel,dgfip,2018-10-20
ban-position-b9e28d941fd04637a957412f60b62535,ban-housenumber-5d7d7f8f8ae04291a848f7bd2a416f61,40155_0430_9,ban-group-b9b6162d09b0466e942b6a5a691642eb,401550430,9,,Rue des Tourterelles,40260,Linxe,40155,,358651.965898416,6323611.31723151,-1.252624,43.928759,entrance,ign,2018-10-20
ban-position-f8a161e65517494aab257cbf6421094b,ban-housenumber-dfe1f0f8747e4501b1a4295f10056a77,40075_0048_48,ban-group-cf9195df9c1e487eb88f19c772e5ebfd,400750048,48,,IMPASSE DE BECUTS,40260,Castets,40075,,366749.003608935,6318102.22351547,-1.148334,43.883125,entrance,ign,2018-10-20
ban-position-86f76236d69242cda86b468c7746693e,ban-housenumber-25784a294b1443c6a4309e9f4b4683ff,40202_0335_1,ban-group-79b58c9cf0194c0089a06485461b8a6c,402020335,1,,Rue Louis Jouvet,40180,Narrosse,40202,,375616.94025686,6297321.00467896,-1.024965,43.700497999999996,parcel,dgfip,2018-10-20
ban-position-6be22cdbeec24bf2bb9a050962601ece,ban-housenumber-ec7d00e6629f4f52bdc30c91aba18ce7,40192_2360_9,ban-group-113a79f172604dc8ab520d091f07b59a,401922360,9,,Rue Vincent Tamon,40000,Mont-de-Marsan,40192,,417710.160399779,6316186.68306437,-0.513818,43.888149,parcel,dgfip,2018-10-20
ban-position-061c1079da824467a4ede6b68ff6378e,ban-housenumber-b761f7ffd2c84f58b1acc337dda6babe,40192_0827_16,ban-group-1b8aedef16f24353899423599f6ad7e5,401920827,16,,Allée Francois Vives,40000,Mont-de-Marsan,40192,,420295.195161535,6312770.94758252,-0.47981,43.858470000000004,entrance,ign,2018-10-20
ban-position-4b660ad7c89d4a67b231ef3dfb1aa481,ban-housenumber-3453b19ea7054d1ea6df490887f17b92,40088_0847_18,ban-group-d6e1a39b3cac4f889b9e5c866ee6e01a,400880847,18,,Rue du Général Leclerc,40100,Dax,40088,,371785.033100316,6297459.01113307,-1.072516,43.699971000000005,parcel,dgfip,2018-10-20
ban-position-6f4cb048a04d4ee7b71abb562ff08fe5,ban-housenumber-2d38f5f78d484ff6848ce9970488dcb0,40117_1220_893,ban-group-d0dd145cde2844fbbc504e0a7c968369,401171220,893,,Avenue de Villeneuve,40270,Grenade-sur-l'Adour,40117,,424811.665965249,6304006.23077207,-0.41897299999999993,43.781447,parcel,dgfip,2018-10-20
ban-position-460129c589a0452ea9dcbd9e5bc70471,ban-housenumber-dc6347c4a7a041669804a97f9265c806,40304_0025_439,ban-group-254bba7eef39430bb948c95a0140d34c,403040025,439,,Avenue des Artisans,40150,Soorts-Hossegor,40304,,346285.691167987,6295717.60598939,-1.3870870000000002,43.672039,parcel,dgfip,2018-10-20
ban-position-380649990fc5498c94e731f2ff75528d,ban-housenumber-7b57350d94c7436487fbaa1d3cd70c62,40279_0287_128,ban-group-73b2e7f3853245f4862b2886306836b9,402790287,128,,RUE DE LABOUYRIE,40990,Saint-Paul-lès-Dax,40279,,371053.47005259,6300646.94464036,-1.083621,43.728279,entrance,ign,2018-10-20
ban-position-6c3b9ea00a0b4700a7ee7d8f74f16422,ban-housenumber-f16585ca49e1456784a9be74f210ef93,40025_0220_285,ban-group-fde93ec8853d44e19f4965bdf93f46df,400250220,285,,CHEMIN LASBOUERES,40090,Bascons,40025,,425132.097407557,6308452.21757779,-0.417386,43.821543,parcel,dgfip,2018-10-20
ban-position-58550d7a14db4fd9b4c774b9c4c5f9e3,ban-housenumber-5e9a7fc9cae6481e91a202506d5d709c,40002_0035_135,ban-group-e116b981426343e5b839ab08eaf22cf6,400020035,135,,Chemin de Chabrague,40330,Amou,40002,,399792.791848901,6285719.10609784,-0.718677,43.606891999999995,parcel,dgfip,2018-10-20
ban-position-cfd21852e9ab4a5eaf0785a5108c2a9a,ban-housenumber-d19072ca193349fd8345eb6fac8b9cc5,40046_0493_247,ban-group-d594b70f5cbf429da21836c5bf6d682e,400460493,247,,Chemin du Crastail,40600,Biscarrosse,40046,,369863.45801461604,6375958.01809722,-1.147429,44.404615,parcel,dgfip,2018-10-20
ban-position-5a2be1defa1f4c70a2ef78bdbec87866,ban-housenumber-0f2331bc79ff4d0699593432c8e842c6,40006_0026_66,ban-group-2453fa2e3b094fd6b8531e7e9baa67f2,400060026,66,,ROUTE DE MONT DE MARSAN,40110,Arengosse,40006,,396184.02157945797,6330194.67480315,-0.789732,44.005125,entrance,ign,2018-10-20
ban-position-cef042108aa0498aaae83a19d65b76a5,ban-housenumber-c54799e5a0104b3cb0efe222ed8e75ce,40192_2345_1384,ban-group-8b4ddbf0eade407b81f3dc89063ce86d,401922345,1384,,Avenue du Vignau,40000,Mont-de-Marsan,40192,,421828.633044235,6314669.79743579,-0.461792,43.876148,parcel,dgfip,2018-10-20
ban-position-3e33d7c65ceb480283f9759c463da487,ban-housenumber-fd140e78e84a4cbaa0f2b387b7b9aa7b,40210_0275_138,ban-group-c408aa4db9574a1d83fe84727485c7aa,402100275,138,,CHEMIN DE L USINE,40110,Onesse-Laharie,40210,,374117.999475543,6336955.0235275,-1.06885,44.056015,entrance,ign,2018-10-20
ban-position-6c1feb28a0524917934d57e7c746e2df,ban-housenumber-f07a1cb06e4541b68accc96f3f7af31d,40002_0017_649,ban-group-1995151ed82a42e788ec92a5d953cb99,400020017,649,,Chemin de Barragne,40330,Amou,40002,,397375.103536332,6282602.896436799,-0.74675,43.577857,parcel,dgfip,2018-10-20
ban-position-a1e4cc5e0177465aaf8b180f347ddbb7,ban-housenumber-c1817e34f4cf4db2bc5b2f4958067f7c,40119_0680_63,ban-group-0b9947ec132b440b9d592cf4b5c23471,401190680,63,,CHEMIN DE GUICHOT,40700,Hagetmau,40119,,409399.233004138,6288361.37533672,-0.601341,43.634646000000004,segment,ign,2018-10-20
ban-position-052b9b98dd69491eab196f205f79c6c6,ban-housenumber-884a2031a20f4732a0365782d0a06540,40116_0080_210,ban-group-10019afd694247268af3e15c4c3bf4bb,401160080,210,,Route de la Pachère,40400,Gouts,40116,,393960.296443345,6306087.39961988,-0.802956,43.787464,segment,ign,2018-10-20
ban-position-da25bc10dc344f6b90ed8e20e2145240,ban-housenumber-f434a54469064fa788be9aeedd09a254,40134_1040_191,ban-group-fbe960f7c1b74eb98161461132828c36,401341040,191,,Rue du Pin Franc,40210,Labouheyre,40134,,387375.300012633,6353026.4679050995,-0.913537,44.206511,parcel,dgfip,2018-10-20
ban-position-b9f906c9000b4d68aefc2cde767af0d7,ban-housenumber-f62bbeae69f145b98a58a2d2a8f1e83d,40194_0044_26,ban-group-61c9384938fd4802816f75642f33b8da,401940044,26,,CHEMIN DE L EGLISE,40380,Montfort-en-Chalosse,40194,,390522.67658360896,6297355.47074406,-0.840333,43.707485,entrance,ign,2018-10-20
ban-position-f5f9a7cf25d74865919d7391273052d4,ban-housenumber-e491ded1afe04997a2ce4d910911b131,40296_0012_4_c,ban-group-8bc0ce7538954e93913b1f2e5d9d5f7c,402960012,4,C,Avenue des Baïnes,40510,Seignosse,40296,,343156.434183217,6298542.96422956,-1.42778092082278,43.69585155562471,segment,ign,2019-07-22
ban-position-84a4f3ce652c400bb67ec14dfaa9f154,ban-housenumber-c6289fd66d7c4aa2b6d52fb67a2198c5,40192_0785_840,ban-group-624bac97ebcb4188a87530ab81aae304,401920785,840,,RUE DE LA FERME DU CARBOUE,40000,Mont-de-Marsan,40192,,421678.489440628,6317513.21897878,-0.46521,43.901653,parcel,dgfip,2018-10-20
ban-position-5a2779eab35f4547a2e1104f0954bbb4,ban-housenumber-88d1dcb33adc47ac94a3a048be2d26bc,40202_0490_5,ban-group-09d8278ff9e443cf8eb1c086396512a9,402020490,5,,ROUTE DE LA PLANTATION,40180,Narrosse,40202,,377143.67778141797,6297634.65536106,-1.006251,43.704015000000005,entrance,ign,2018-10-20
ban-position-7d97ea98665b4c0c94e50e14abc626f3,ban-housenumber-bfcf669de9714611bc0da202a31f28e8,40227_0420_5002_f,ban-group-9c2eba1489c441ddb311531b08d3d3c1,402270420,5002,F,Route des Lacs,40410,Pissos,40227,,398102.400508055,6363996.35421562,-0.78604,44.309841,segment,ign,2018-10-20
ban-position-bce090fb908543d392d71789d1e8c1c0,ban-housenumber-0fc010d66b8441a59ae634b559f6249b,40284_0083_1,ban-group-49c2c896ef95492a9547496d867236e4,402840083,1,,Impasse du Cutiot,40230,Saint-Vincent-de-Tyrosse,40284,,354921.18274987704,6295261.90966296,-1.279888,43.672207,parcel,dgfip,2018-10-20
ban-position-dffe5af6464b40299230f51e39b9565b,ban-housenumber-b89a87e8263d411da6e16ff172beb15b,40155_0270_8,ban-group-7245e88010004c0db547cc9c5614cd37,401550270,8,,Rue des Mésanges,40260,Linxe,40155,,358546.71444003604,6323653.49132529,-1.253961,43.929087,entrance,ign,2018-10-20
ban-position-32d1965078ce4fc1b8b6fa236a4f36ba,ban-housenumber-6e90c6557ffd4f6fb6e378c5c5e030c9,40312_1030_33,ban-group-05d7da44e6df4ccba2fa495e4eaa84d2,403121030,33,,Avenue du Dauphin,40220,Tarnos,40312,,338919.466633094,6281455.23608556,-1.468257,43.540198,entrance,ign,2019-01-30
ban-position-fde76ab0ca3a4a5d9f870a6c4f7d8a68,ban-housenumber-84a011e9ed2a4c38aef2aef1629a976e,40049_0150_795,ban-group-6c93530daf5743a2bb7588d2303c35f8,400490150,795,,Avenue de l'Océan,40270,Bordères-et-Lamensans,40049,,428256.304536962,6302885.56212107,-0.375634,43.772705,parcel,dgfip,2018-10-20
ban-position-a8e364a8c12644338da4dbca51d752ba,ban-housenumber-99a183976ab94734b8eea876079cc118,40232_0070_632,ban-group-2d7f650d8f564d82b399bdf3aa660adf,402320070,632,,Chemin de Garros,40700,Poudenx,40232,,409791.926092691,6282641.98683336,-0.593258,43.583399,parcel,dgfip,2018-10-20
ban-position-cc2fa5a8b34142478551b022beea4dc2,ban-housenumber-0ce1e7d3ba744839a9d8e5f43af5d6f6,40163_0049_276,ban-group-8bae8a53066c4de18f8457e2d8d2c68b,401630049,276,,Route du Born,40210,Lüe,40163,,381464.81411616603,6356153.83772558,-0.9893780000000001,44.231964000000005,parcel,dgfip,2018-10-20
ban-position-8e6e7c2af33e45d18c5f5a62d4cc790a,ban-housenumber-926f41a4521e4fb391ff61e49d039d66,40238_0430_90,ban-group-93fee74002ca454087d6ef7936e210f1,402380430,90,,CHEMIN DU VILLAGE,40190,Pujo-le-Plan,40238,,431614.275723227,6313134.98360352,-0.339352,43.86614,parcel,dgfip,2018-10-20
ban-position-2a737d0b882d4518a29a3e69ed50173d,ban-housenumber-d9e754103dec4701983ae04aef3f9636,40134_1230_202,ban-group-cdad6204ff664a7e89246693c9b3c979,401341230,202,,ROUTE DE SOLFERINO,40210,Labouheyre,40134,,387315.19221856,6353658.26845369,-0.9146799999999999,44.212164,parcel,dgfip,2018-10-20
ban-position-193846e6c76b4bdf861d33163b484da1,ban-housenumber-e9aafb119c484a07bd3a1e09b637e63a,40150_0240_143,ban-group-8940b150943c41d498d1ce7c7f93258b,401500240,143,,Rue de Nabet,40550,Léon,40150,,353982.82443383604,6318240.558161099,-1.307033,43.87822,entrance,ign,2018-10-20
ban-position-ba51c3b3124f492c8b9403f998f22961,ban-housenumber-9cd3be3661ce4972a9705fb09a59aacf,40245_0010_643,ban-group-c90bc634ed7f4b87aeca23d22407260a,402450010,643,,Avenue de l'Armagnac,40120,Roquefort,40245,,434367.661736375,6331478.35708508,-0.314709,44.032121000000004,entrance,ign,2018-10-20
ban-position-0e9dd559d765413d98c3a12b356d2fd3,ban-housenumber-281d82b693df4bbb942dbfd0d7e4e320,40001_0200_15,ban-group-6998da891669491da7d2185d026c67dc,400010200,15,,RUE CARNOT,40800,Aire-sur-l'Adour,40001,,436982.663997454,6294500.95332136,-0.263058,43.700623,entrance,ign,2018-10-20
ban-position-acd570e47f8749e58801f3cef83a6468,ban-housenumber-49e2ab566b404769b51e5f1053de1425,40287_1420_113,ban-group-6f3b787c5c5548ef80b6fdb15ef5d49e,402871420,113,,Chemin de Sainte Rose,40460,Sanguinet,40287,,376998.20881393,6385262.24119804,-1.063967,44.491596,parcel,dgfip,2018-10-20
ban-position-335d7fae845142de897c24154024bb03,ban-housenumber-8e8875df2a674753b90d74ca00f71b94,40044_0042_32,ban-group-95e2acad868147c6bc9177dad9a38453,400440042,32,,Allée de Lahounit,40390,Biaudos,40044,,351268.69729199697,6281758.12979894,-1.31595339370953,43.5490960427669,segment,ign,2019-07-21
ban-position-7b026e9cf943493baf04881d20bdc410,ban-housenumber-02af9a89ca344a569a0901aac7eb18c9,40284_A024_19,ban-group-0ed874e749dc4b96b46000aa0ce4356d,40284A024,19,,HAMEAU DE CHALONS,40230,Saint-Vincent-de-Tyrosse,40284,,354853.172863774,6295037.32683258,-1.2805790000000001,43.670156,parcel,dgfip,2018-10-20
ban-position-6a130937ed514878aa41e3292c958f31,ban-housenumber-4ab6da74bad04c1da8f59eae88f62aa1,40266_0101_368,ban-group-3c9085fea2094561aa0b9e01fbaa0fa6,402660101,368,,Rue des Albizzias,40170,Saint-Julien-en-Born,40266,,358991.240785278,6340246.00339733,-1.259574,44.078417,parcel,dgfip,2018-10-20
ban-position-20dab9772b1745c68ed5d1d7e244fdc8,ban-housenumber-d916dcf90acc4f859c3fedacd5f3dcac,40192_0413_24,ban-group-f73e204a421148e28ddd5f84857c6225,401920413,24,,RUE DU CAP TARTAS,40000,Mont-de-Marsan,40192,,420977.93836078705,6314640.32583261,-0.47234899999999996,43.875547,entrance,ign,2018-10-20
ban-position-d26dccd869034bb08f91b9225f9ffe92,ban-housenumber-267ab3ddbec44285ae07a9569b05d551,40252_0270_28,ban-group-3deb0a9251ab45c2a0835df611c1a768,402520270,28,,PLACE HARGOUETTE,40700,Sainte-Colombe,40252,,413225.633236549,6293337.92499192,-0.556762,43.680939,parcel,dgfip,2018-10-20
ban-position-15650f048d454a9c96718b186dca5470,ban-housenumber-ab6414dd220749e3a47571cee4c8c39b,40280_0265_55,ban-group-6d38c8bffb364c1f9e5bbb6cfe6b37c8,402800265,55,,Avenue du Marsan,40090,Saint-Perdon,40280,,411474.08062127,6313811.70025954,-0.589993,43.864274,segment,ign,2018-10-20
ban-position-4b7116a801614e68a6d1a701acc45abd,ban-housenumber-12102afbbbab45038154a580af835540,40111_0340_276,ban-group-73c985df20ef41cda50aa5677d296f45,401110340,276,,CHEMIN DE LA TEOULERE,40090,Geloux,40111,,407945.37810781295,6326009.02395555,-0.64083,43.972475,entrance,ign,2018-10-20
ban-position-91ffaebaa4e84939867a0ac792d88836,ban-housenumber-c91a637da077406e990622cc50ceee3c,40192_1081_15,ban-group-2da852584b624d2a817a91ed97a39b78,401921081,15,,Rue Pierre Hiquet,40000,Mont-de-Marsan,40192,,422397.512999999,6316825.48999999,-0.455894813908455,43.8957533052201,entrance,ign,2019-07-22
ban-position-bee49a650d6f47b29d4f6a809bafb1a4,ban-housenumber-c9943599782047fbbaa8a07001f263f8,40314_0059_3,ban-group-a811487fefd74584b854dfa17d08a32c,403140059,3,,RUE ETIENNE EDOUARD SERRES,40180,Tercis-les-Bains,40314,,368679.73280444206,6294802.90489284,-1.109264,43.674656,parcel,dgfip,2018-10-20
ban-position-ea3b1388b45a4f60a60b3c175fbdc620,ban-housenumber-ca7b428ab8ab417fafcafbf67daff108,40313_0178_9,ban-group-e18395d2c5014b738cbdbde9290a1b8b,403130178,9,,Rue des Barcayem,40400,Tartas,40313,,394469.498210654,6310903.9681917,-0.799516,43.830978,entrance,ign,2018-10-20
ban-position-b87fb75ae3c64c65b2675ff17c71b8df,ban-housenumber-f7ab87c422e146aaa62a121df9b0a01e,40192_1325_7,ban-group-d65e6bb10c7b44fe8b5ca5d8c1ff81f9,401921325,7,,Avenue le Corbusier,40000,Mont-de-Marsan,40192,,420800.07121841295,6317442.85155365,-0.47609399999999996,43.900673,parcel,dgfip,2018-10-20
ban-position-bfd2bb6ace8c4c1fa24ac0ad35c0ce95,ban-housenumber-c82d85843028488885f926c5d2cab2d2,40059_0065_1116,ban-group-148778fecf374e28bd0c6bfa809cd95f,400590065,1116,,Route de Cazordite,40300,Cagnotte,40059,,371904.62878679705,6287631.38408576,-1.064763,43.611715000000004,entrance,ign,2018-10-20
ban-position-e1ec2da21e46418ca7a73bc5839d2eb4,ban-housenumber-3f6fe6496b49475ea4d0d74adc8ae187,40273_0605_329,ban-group-e1dbe70f41a3410da2636ece23ac07fc,402730605,329,,ROUTE DU CHATEAU D EAU,40390,Saint-Martin-de-Seignanx,40273,,344098.3,6278984.59999999,-1.40260145975014,43.5206201775148,segment,ign,2019-02-01
ban-position-ed7e69cffcd9427b82adfe744c16636a,ban-housenumber-61f4ac98144e43b08ee2fb5405daf062,40133_0230_15,ban-group-2601f337951e46ca8c9a49ab9aaf854f,401330230,15,,Allée du Limousin,40530,Labenne,40133,,339192.021150544,6287140.77288582,-1.468869,43.591409999999996,entrance,ign,2018-10-20
ban-position-e28d151d888347758b8be5707d1e4d09,ban-housenumber-08c7bb9dbc1243919c079795bc422c80,40298_0200_443,ban-group-4cc1cf2fba3d493ab64ed26a3b20b3d8,402980200,443,,Chemin des Landes,40700,Serres-Gaston,40298,,415364.36186605104,6290888.91768918,-0.5289149999999999,43.659788,segment,ign,2018-10-20
ban-position-215f83979c5947f9b1ce4aeedad25281,ban-housenumber-2cd17dfd9daa4eef9879c77470a5369d,40046_0618_164,ban-group-523aea2b7ce5473c9e5fea28fe8c3c23,400460618,164,,Rue des Eglantines,40600,Biscarrosse,40046,,368784.381425764,6373899.31350683,-1.159599,44.385598,entrance,ign,2018-10-20
ban-position-4c19d0b9d99f418eb299124b2cc8a9e8,ban-housenumber-df75cb6e64c8473db168249ac9993f14,40154_0040_205,ban-group-642eb4b7a09745cd8cd08947192cf8b1,401540040,205,,Route du Moulin-vieux,40170,Lévignacq,40154,,366163.285786983,6331641.37232406,-1.164492,44.004526,parcel,dgfip,2018-10-20
ban-position-2ffd9313294746c0a7ad00760c2ef781,ban-housenumber-2e1ca23dcb1b4d14b2560d25b2a1f435,40182_B059_238,ban-group-8ac37fe82d3e40308d855208b6d0569e,40182B059,238,,Lanès,40170,Mézos,40182,,369061.114049074,6338951.85551777,-1.133178,44.0716,parcel,dgfip,2019-02-14
ban-position-50ef3b27fc1b43bd84b0dbf135cb6682,ban-housenumber-6239e11f81d0446c91a267672ec44c09,40222_0165_498,ban-group-9e30f837c37941bbb406c59f6dd217d4,402220165,498,,Route de Hourtic,40300,Pey,40222,,360840.156543403,6287051.26481749,-1.2012040000000002,43.601294,parcel,dgfip,2018-10-20
ban-position-a21510aaa60c402eac033372ffb01920,ban-housenumber-2900fb3404794937ad96d97cdbaa065f,40310_B217_151,ban-group-f923d70ec8024d69b4929b2ef09ac363,40310B217,151,,Chon,40140,Soustons,40310,,356300.019640708,6302499.64964402,-1.267667,43.73791,entrance,ign,2019-11-08
ban-position-8ee4af8520c04d41a61e86271be1cafc,ban-housenumber-0fd374923c0b4a16b7c521d7b9f058b7,40065_1345_9,ban-group-ddff6633784f4ef6bff4b984c9bbee95,400651345,9,,Rue Pierre Dessis,40130,Capbreton,40065,,342480.792010742,6292212.67089513,-1.431743,43.63864,parcel,dgfip,2018-10-20
ban-position-ae65ef2ff5e54528b325fc836e36e3cf,ban-housenumber-5513b308c423494087a210097a2bb152,40131_0058_8960,ban-group-c45583a095ff40c38adebc2798842444,401310058,8960,,Route du Saumon,40240,Labastide-d'Armagnac,40131,,450212.506638994,6320852.33814541,-0.11197659733211698,43.9423691011528,segment,ign,2019-11-08
ban-position-53155374ad0c4d25beb27867d7a66076,ban-housenumber-2e385fce63ff4037bdeea25ed0f3e322,,ban-group-ed077f309e29450e9c9b3135e4f23a08,,610,,CHEMIN DE PARATGE,40700,Serreslous-et-Arribans,40299,,405740.299999999,6292536.79999998,-0.64901067060488,43.67066575676821,segment,ign,2019-02-07
ban-position-a869727c646e4e949c74162edbc97d00,ban-housenumber-e39cdf574f0841278e3630b3353909af,40233_0760_9,ban-group-042a55a3d4e84b8aab5a98e22b6c0b97,402330760,9,,Rue Alfred Longuefosse,40350,Pouillon,40233,,377317.140619961,6287233.97097083,-0.997574,43.610628999999996,parcel,dgfip,2018-10-20
ban-position-bd50dd20ee10491bb18fc28896317018,ban-housenumber-fe1a21b9ea244c4ba3cea1d739d2a40d,40126_0078_36,ban-group-b68d7777324040569709307da0367b3e,401260078,36,,Chemin Campot,40180,Hinx,40126,,382785.94319685,6298780.9206515,-0.9370629999999999,43.716869,parcel,dgfip,2018-10-20
ban-position-b76213c8283943d2a0265fc12ee725b8,ban-housenumber-226610e3b0d548748c931486ce50d97a,40228_0285_59,ban-group-f26eeaed61644b3c90ba5077b429ea28,402280285,59,,Avenue du Marsan,40360,Pomarez,40228,,390963.93451601296,6288741.81754558,-0.829686,43.630263,segment,ign,2018-10-20
ban-position-87c4b97f7c624f8499b93b8dbea05ef8,ban-housenumber-46f29a1e19b34e16b9505e072d83673e,40310_1640_12,ban-group-ff0d970716d249d3a1c250dfb1b2e306,403101640,12,,AVENUE DES CUTYOTS,40140,Soustons,40310,,345788.402093782,6306763.79768811,-1.40087,43.771034,parcel,dgfip,2018-10-20
ban-position-5485497d411848fab03a9388cad9469b,ban-housenumber-3fc4b8413ddb4e4dacd5611e951e1cb3,40201_0071_6,ban-group-29966df938fd49c38c772d55e2c77b0a,402010071,6,,RUE SAINT VINCENT DE PAUL,40250,Mugron,40201,,398016.19757108,6301718.64892872,-0.7500560000000001,43.749941,entrance,ign,2018-10-20
ban-position-ca79f848376b4322826279f65c0255b3,ban-housenumber-8edb91e14d814823a9175e3c1d45df62,40223_0005_144,ban-group-a20e5a61f22c49ffa89130c024f47df8,402230005,144,,Chemin de Baratte,40700,Peyre,40223,,413640.565682831,6280877.8493205,-0.54469,43.569107,parcel,dgfip,2018-10-20
ban-position-10386402eb524eedb2f8f6ac8fed33b6,ban-housenumber-2893b06fa67d491a92a1083c1039b596,40281_0440_18,ban-group-94714da96d1846e4882c66a8e479829a,402810440,18,,Rue Georges Guynemer,40280,Saint-Pierre-du-Mont,40281,,418692.163982046,6315284.6760234,-0.501113,43.880432,parcel,dgfip,2018-10-20
ban-position-b6830af1cc014e27bbd7e6d573edebec,ban-housenumber-0b4725122e614ef6895eb282f3529c77,40150_0035_142,ban-group-a847d090310543749d269bb80d7fd8d5,401500035,142,,Allée des Bruyères,40550,Léon,40150,,354644.11324196897,6319180.00958716,-1.299454,43.886986,segment,ign,2018-10-20
ban-position-6647ad87576c4cbc926a1f890f3c760c,ban-housenumber-a075ef64c1e44f4f9cd34eac11622c10,40279_0650_9001,ban-group-8528265312bb49eb84a3622cc30161f4,402790650,9001,,Rue Victor Hugo,40990,Saint-Paul-lès-Dax,40279,,373296.211020073,6299712.58217695,-1.055233,43.720921999999995,segment,ign,2019-07-19
ban-position-072032177a664e6a87423c02ee623cb5,ban-housenumber-2b171180aaaf4941a820bef46f7de20f,40328_0350_3,ban-group-1642704d6210429fa5552cd3f6f34714,403280350,3,,Avenue du Sablar,40480,Vieux-Boucau-les-Bains,40328,,346125.344150415,6308283.72648131,-1.397743,43.784859000000004,parcel,dgfip,2018-10-20
ban-position-c45e337afc7d4fdd9d942bfb1928a745,ban-housenumber-fb9e8ea32d894bc4ae7ebaff1d6baa6e,40065_0675_14_d,ban-group-7366b0ee686e46e398397f128be28dda,400650675,14,D,Avenue de Biarritz,40130,Capbreton,40065,,341763.188077891,6292687.15053669,-1.44095,43.642540000000004,parcel,dgfip,2018-10-20
ban-position-d1069d9a479641558bfc4d8a8cfb0721,ban-housenumber-cc45f2cd9ac444289b9160fe400063fd,40197_0280_31,ban-group-e29f51ec4ae743a3abb6c6de1167a1be,401970280,31,,Rue Georges Clémenceau,40110,Morcenx-la-Nouvelle,40197,Morcenx,386561.946935738,6334074.34521547,-0.911958,44.035779,parcel,dgfip,2019-04-02
ban-position-cbd444a0834841d784e563462df87ad1,ban-housenumber-34d7120d86c048eaaf931b783f0dcca3,40088_1970_3,ban-group-ad2f3e36e39e4a00ab055f46714cd6f3,400881970,3,,Rue Thore,40100,Dax,40088,,372878.330868616,6297872.9358321,-1.059238,43.704197,entrance,ign,2018-10-20
ban-position-0963506f03fa4b229d799c1cf82f77b3,ban-housenumber-469be6da222e4b49973a6ea0e5567eab,40046_1069_440,ban-group-d81ddd7fca9a4aa988fcf45b356da9e7,400461069,440,,Chemin de Liboy,40600,Biscarrosse,40046,,370012.834444936,6379884.78346381,-1.148145,44.439985,parcel,dgfip,2018-10-20
ban-position-045b682ecea5445e97b5fbe13d838036,ban-housenumber-0e6743f30b9c4e98bb0984686e83a6ab,40046_0817_501,ban-group-27d0ecde6968453f9ba0117d33e62818,400460817,501,,RUE DU GRAND JEANNON,40600,Biscarrosse,40046,,368903.428557851,6374051.11578446,-1.158207,44.387019,parcel,dgfip,2018-10-20
ban-position-33f4d25026584ec49121132e4d533b7f,ban-housenumber-80d4bf7caaf644bba284bbd9feaddf82,40272_0275_999,ban-group-b2da699a5a034ae684f1a6aeead7bc5c,402720275,999,,Rue de l'Europe,40390,Saint-Martin-de-Hinx,40272,,355152.426863394,6285184.62217835,-1.270273,43.581779,segment,ign,2018-10-20
ban-position-c306bd10c6a847458169f558b32d25c2,ban-housenumber-7c9c0deb0b76407597d20986aaeadd5d,40247_0240_1131,ban-group-9e9c570f7f4145dc86dc95618f7036e4,402470240,1131,,Route de Pau,40800,Saint-Agnet,40247,,435723.08137845603,6282929.047349201,-0.27271999999999996,43.59612,entrance,ign,2018-10-20
ban-position-d63561eb994c4b96891350f8c25d7be4,ban-housenumber-0477fea249ef46c3afac926ce4b2f104,40224_0450_95,ban-group-6563799f8764405291ec7b1b76d8788f,402240450,95,,Rue Gambetta,40300,Peyrehorade,40224,,368148.303712344,6280341.71393006,-1.106524,43.544466,parcel,dgfip,2018-10-20
ban-position-b73fcb253a18400594bb892b5ab32294,ban-housenumber-fb117242ddeb42a6b4e207f45dcd2ac3,40128_B064_5001_f,ban-group-05c2e8f175654bd5b590559c4ba09e7f,40128B064,5001,F,LISSANDRE,40700,Horsarrieu,40128,,409955.109865275,6292176.99317488,-0.596614,43.669171,parcel,dgfip,2018-10-20
ban-position-9a5240d4950e4b2da0227e55bccb75fd,ban-housenumber-bd6383bc287e4d18af63accffabc3a29,40264_0380_68,ban-group-eabbf89552f94c408ae9fd4324d291a0,402640380,68,,ROUTE DE PALOMA,40230,Saint-Jean-de-Marsacq,40264,,356197.68674261397,6289889.39785514,-1.2604950000000001,43.624557,segment,ign,2018-10-20
ban-position-3cbfe249ea074855be30536ba1751704,ban-housenumber-1bd16c683f6840d88a11ee8c9bc04c05,40229_0260_1040,ban-group-b44475da5ab04e80806a957e209ad194,402290260,1040,,CHEMIN DES TUILERIES,40200,Pontenx-les-Forges,40229,,372416.174080995,6357600.44723921,-1.103444,44.240796,entrance,ign,2018-10-20
ban-position-5b228a9d57c9437c9cea8fba7a05b050,ban-housenumber-fabbb87b2bf5405bbca2b7c5fbf3e344,40312_1945_19,ban-group-f0fa11abb33b442b95f869a88d1141f2,403121945,19,,Rue Treytin,40220,Tarnos,40312,,340063.620787727,6280857.84909531,-1.4537120000000001,43.535413,parcel,dgfip,2018-10-20
ban-position-294c32dfcf7e413298242a574d371409,ban-housenumber-d4e7915b2d98439f894afb4f4c68cd61,40046_0382_220,ban-group-f2950d889a2b43b28bce6c3c01abc531,400460382,220,,Rue du Ciste,40600,Biscarrosse,40046,,367936.572926411,6374265.23802917,-1.170469,44.388484999999996,parcel,dgfip,2018-10-20
ban-position-71156adc07624cb09034e7825a4c668c,ban-housenumber-808d8c1a147944548375fbd20985a59d,40002_0046_165,ban-group-89fcb06384f04abe9b8fc12fb12930f8,400020046,165,,Rue Moncade,40330,Amou,40002,,397637.774378042,6284358.89727695,-0.744533,43.593751,segment,ign,2018-10-20
ban-position-2122516d925743e3a82bc6e8d106293b,ban-housenumber-bf325c103c60442ba1db6344c4e78a21,40282_0156_3,ban-group-7788f26522a64f44bda6b760afd39a33,402820156,3,,RUE DU DOCTEUR PAUL DUBEDAT,40500,Saint-Sever,40282,,412160.59529445204,6301419.19236033,-0.574487406285887,43.7531502988413,segment,ign,2019-07-22
ban-position-c8fcfc523ad34011a2ce8b59dd9f5ccd,ban-housenumber-eca9e2571b234588a1b26c82f17a87ff,40192_0030_55,ban-group-efceef6c78834a86bea55b47bc3a0a8d,401920030,55,,BOULEVARD DES ACACIAS,40000,Mont-de-Marsan,40192,,417975.18439217703,6316675.86416847,-0.510794,43.892653,entrance,ign,2018-10-20
ban-position-6a2ea7eac81a4968877cfce6a1b71f79,ban-housenumber-84ed0b77acd942bf91fdda0bedcd41e9,40313_0116_470,ban-group-5053c02e6eac49e2ba7c554ec134f124,403130116,470,,Route de Saint-sever,40400,Tartas,40313,,394689.409460749,6310149.99456607,-0.796335,43.824296000000004,entrance,ign,2018-10-20
ban-position-a7771767195343efa90d505286186c75,ban-housenumber-1bff77e385bc47e6b0e9f471abee94b9,40273_0031_10,ban-group-c15e4315b83f48c2be821988a8df6f34,402730031,10,,ALLEE D ARBEROUE,40390,Saint-Martin-de-Seignanx,40273,,345803.72309040604,6281239.41418609,-1.383095,43.541729,parcel,dgfip,2018-10-20
ban-position-b03a9d35ff134f9f937d5905d63ed7f9,ban-housenumber-1a6e35db0ef840ac85042069d75def9d,40192_0063_26,ban-group-38a99136c4cb461faf2dc94d150c4db8,401920063,26,,Rue Alfred et Paul Jardon,40000,Mont-de-Marsan,40192,,421036.139964578,6315516.90832517,-0.472105,43.883451,entrance,ign,2018-10-20
ban-position-8257d4d7afb3442f8706e81d58420b17,ban-housenumber-0b61d3880d82455f81c503e0c82e7cd7,40034_0012_324,ban-group-f10fce89fbe24444aef5a4da783ba620,400340012,324,,Route d'Autarribe,40300,Bélus,40034,,367555.173781149,6285351.68506933,-1.1170799999999999,43.589203999999995,entrance,ign,2018-10-20
ban-position-7934994665e1445fb710e9f96a1e2f9d,ban-housenumber-e29ab57a3d2b4dc2893184d989897944,40200_0270_470,ban-group-21f65e67852f4a33a59270c852d20779,402000270,470,,Route de Lombard,40410,Moustey,40200,,401266.62874596,6376325.92858406,-0.753763,44.422059999999995,parcel,dgfip,2018-10-20
ban-position-49a8977ccf2a40a3a0404b58d9a2494a,ban-housenumber-9cddf2374e8f4facb5dc3b4fc7c9977e,40133_0368_18,ban-group-17af26bf180044c2a8491aeeadb4d9c5,401330368,18,,Allée de Saintonge,40530,Labenne,40133,,339828.145404766,6287891.89650888,-1.461532,43.598481,parcel,dgfip,2018-10-20
ban-position-ff8489399a954e00b932993e0c3ed9ae,ban-housenumber-83e83418a1ff43e19070bcb4818b0c62,40088_0751_49,ban-group-5ef9e55310e34a839d7f65c5fc853156,400880751,49,,RUE DES FORCES FRANCAISES LIBRES,40100,Dax,40088,,374189.43632647203,6296259.39306252,-1.041973,43.690302,entrance,ign,2018-10-20
ban-position-46be2a35a0354bc8bc73fa88df183f0f,ban-housenumber-f2a5a9e99be54c2686493363083dbe10,40331_0079_574_a,ban-group-f765bb0683724247b6e53debdacb5174,403310079,574,A,Avenue des Pyrénées,40190,Villeneuve-de-Marsan,40331,,434420.938849003,6315343.18166731,-0.305621,43.887057,parcel,dgfip,2019-11-08
ban-position-8489d337ccb444fda3e159991e525749,ban-housenumber-b7560af50f4c425c881bccafe1f9435e,40281_0156_78,ban-group-cadabf59e53b47399bfd9d849ce2ff79,402810156,78,,Impasse de la Callune,40280,Saint-Pierre-du-Mont,40281,,419672.96819732897,6314489.43987515,-0.48848500000000006,43.873673,parcel,dgfip,2018-10-20
ban-position-cf74c44712344c47a45850ee9da4fb18,ban-housenumber-51308148a062463491d8e796fcd9eff1,40224_0865_113,ban-group-362da380c7ea4ac3abda244507756d98,402240865,113,,Route de Trompe,40300,Peyrehorade,40224,,367110.134149283,6281334.3950079,-1.119988,43.552899,entrance,ign,2018-10-20
ban-position-e459993af3fd4ed49aa76a7a2573f3d6,ban-housenumber-7963d5ebd1cb4e1595c4add801add5cf,40261_0650_2,ban-group-cf0fdd2cf57346aeba59ff93afec4a18,402610650,2,,Allée des Narcisses,40230,Saint-Geours-de-Maremne,40261,,358765.724505592,6296249.01209217,-1.232953,43.68294,entrance,ign,2018-10-20
ban-position-ecfaa493ac764a309f8b11829cfcf259,ban-housenumber-2642aee702da49ad9c4c84124de59a8b,40253_0420_1293,ban-group-b7dd2cf54e644c60bdea2fe8c40d07c2,402530420,1293,,Chemin de Pétastet,40700,Saint-Cricq-Chalosse,40253,,400920.775345509,6291275.79369048,-0.707955,43.657312,parcel,dgfip,2018-10-20
ban-position-687f7c2d5fd4497bbc15b4300226d51f,ban-housenumber-609ec28892974b4987e6aad2843c09ac,40279_0485_671,ban-group-ef382ad980b64fd1abe3c43587a80f12,402790485,671,,Avenue Pierre Benoit,40990,Saint-Paul-lès-Dax,40279,,373482.04170059797,6302056.54339367,-1.0544229999999999,43.742072,parcel,dgfip,2018-10-20
ban-position-6d4604bf52d44f609219fa574daa2f7a,ban-housenumber-f17ae301c0b84535898f89cabde59be7,40192_1083_28,ban-group-2e3d4408af64462d81ed2c9713b83be2,401921083,28,,RUE HENRY POTEZ,40000,Mont-de-Marsan,40192,,419823.813722923,6316213.04296032,-0.48755699999999996,43.889229,entrance,ign,2018-10-20
ban-position-cf31a83fe4f7423f8da2b8c9dc5ac2b6,ban-housenumber-5eb936dfa8584320b6128e11d85443ee,40282_0905_21,ban-group-0a042acc637d4a14bc3851cef99a8c4f,402820905,21,,Avenue de Sarthoulet,40500,Saint-Sever,40282,,411928.08174304705,6301309.10850466,-0.577309,43.752066,parcel,dgfip,2018-10-20
ban-position-efd4e410b00b43a89dc82c96f5523fdd,ban-housenumber-8f71d1bc3e3b4b4089c8fe3f65fcdbbc,40271_0705_479,ban-group-92a4b0d2694d4d2993722716ae9ca7e1,402710705,479,,Route de Marensin,40390,Sainte-Marie-de-Gosse,40271,,356587.625995385,6280875.18820429,-1.249666,43.543758000000004,parcel,dgfip,2018-10-20
ban-position-4c40260c05f44f00b4ccadc65fdc16b6,ban-housenumber-a4992ebafcd7433d8e10e82217f656e3,40192_2322_3,ban-group-eac271a91ade46b4b40b3b03767ee5f1,401922322,3,,Impasse Véronique,40000,Mont-de-Marsan,40192,,420554.878180713,6315226.21922901,-0.47792799999999996,43.880646999999996,entrance,ign,2018-10-20
ban-position-56d2be50541a4e85b211dca9eb0247ba,ban-housenumber-19bb688e6c014416a8b45678e0c5fd27,40312_0940_45,ban-group-dd1e54b87b67486e956964938d3d553f,403120940,45,,Rue des Chevreuils,40220,Tarnos,40312,,337309.988634084,6282192.40629925,-1.488649,43.545999,parcel,dgfip,2018-10-20
ban-position-18149d5c911b4290b0100b8afd1be54b,ban-housenumber-71617eff105e40448ac6f61f16fd060b,40184_1400_130,ban-group-36f40cb6fa5c48ea816b6d7146d52fbb,401841400,130,,Avenue de la Plage,40200,Mimizan,40184,,359634.897333412,6355004.40845981,-1.2614889999999999,44.211371,entrance,ign,2018-10-20
ban-position-49f7217e8f7f450ea9d37501950f2713,ban-housenumber-499a8e7465cf46f09863da23010abe23,40133_0015_2,ban-group-2478bec88ba5440abdc7ced140e705ea,401330015,2,,Impasse de l'Arpan,40530,Labenne,40133,,341597.47229083,6287778.04034145,-1.439582,43.598355,parcel,dgfip,2018-10-20
ban-position-f19b7162d4f142699d035a169c956347,ban-housenumber-f37c608fdcc746339fd3b5f338b81fb5,40103_0060_2700,ban-group-14c2b20a3746425893b1ca92fd3866cd,401030060,2700,,Chemin du Chaoure,40090,Gaillères,40103,,428187.997615876,6320134.45024017,-0.38566300000000003,43.927761,entrance,ign,2018-10-20
ban-position-64b125b0d02b48d4becf09f988c6f4fc,ban-housenumber-0659f0eccb4846f3bfe461b2b28e7f5a,40192_1402_1507,ban-group-6b66200bb9424021be405453bd0eda36,401921402,1507,,Avenue du Maréchal Juin,40000,Mont-de-Marsan,40192,,421052.64291521604,6318121.66609648,-0.473325,43.906876000000004,parcel,dgfip,2018-10-20
ban-position-370923e083ec4a21babef2a166b5039a,ban-housenumber-7fe8bb3fb2df45608e20a0affced20c8,40327_B016_88,ban-group-386216707cf74a7e959c221cd43f33e9,40327B016,88,,Jean de Marthe,40240,Vielle-Soubiran,40327,,445746.721703851,6331801.73240588,-0.173033,44.039235,parcel,dgfip,2019-11-01
ban-position-8a1a0630d9ad47e1a5c2b8fcd6213483,ban-housenumber-79ab1a97a90341f186a07c7cc73366d4,40246_0430_5016,ban-group-843cc8683faa42da9aa05841081c4df1,402460430,5016,,Rue Victor Hugo,40630,Sabres,40246,,401058.999856829,6345748.42972396,-0.738192,44.147045,parcel,dgfip,2018-10-20
ban-position-b1cda86252ae45caaf24a5a376c2e817,ban-housenumber-3462e75832954f0dad4a5eb56f9c1c94,40292_A010_68,ban-group-e4a1f2885ef54069b328e2c1d0c11cb3,40292A010,68,,Lotissement le Baradet,40230,Saubrigues,40292,,351328.909073098,6288122.22408375,-1.3195139999999999,43.606301,entrance,ign,2019-11-08
ban-position-03e75311185143f3ba7ba13996e72ca3,ban-housenumber-8c47a2faff6848aaa47ac172bfa4cacd,40202_0600_31,ban-group-fcd3281701ea4c9192fafcda50f827a3,402020600,31,,Route de Sort,40180,Narrosse,40202,,377556.53317754896,6296310.44296076,-1.000305,43.692303,entrance,ign,2018-10-20
ban-position-e4ecfa07d51d43a1a4233c36809ffe7d,ban-housenumber-4587fd0d9fde4da0baef994d62e97e1a,40332_0064_1371,ban-group-828418fb37884be49216e623c9277c44,403320064,1371,,CHEMIN HARRIOU,40160,Ychoux,40332,,385994.17644983705,6364204.17132465,-0.9377700000000001,44.306381,segment,ign,2018-10-20
ban-position-7656189fb00c42018ee5dbdd34047fc8,ban-housenumber-56fd78b8bd1e4e1c863c870b8aec307e,40192_0550_5,ban-group-86fbd86e164e4b52984e82cbc10516ea,401920550,5,,Rue Corcos,40000,Mont-de-Marsan,40192,,418608.12681613397,6316853.17494549,-0.503023,43.8945,entrance,ign,2018-10-20
ban-position-df25026332d14ad1bd47f379fd972fc4,ban-housenumber-1f73feadc90742e98d3d42f9e8eb6aac,40310_2580_5,ban-group-ef183708f85848b8a4a794dbd7ab53d5,403102580,5,,Allée Francis Planté,40140,Soustons,40310,,351631.767880083,6304038.95037621,-1.326563,43.749456,parcel,dgfip,2018-10-20
ban-position-253855eb6ba147549f6660daeb86ffe1,ban-housenumber-ed108549826047c4a4c8d11ea395deef,40046_0480_303,ban-group-731204630d944985a58f1798c6361a24,400460480,303,,AVENUE DE LA COTE D ARGENT,40600,Biscarrosse,40046,,361658.398459982,6380823.48157747,-1.2536,44.444424,segment,ign,2018-10-20
ban-position-da960e0f4af141b2ad83295ce3afb6b3,ban-housenumber-400fbd7a52f04837984a472acff4a3e6,40273_1005_96,ban-group-0f6a41f9fb9b474a84c797624fa17664,402731005,96,,Allée de Petiton,40390,Saint-Martin-de-Seignanx,40273,,345477.194984608,6280845.69456366,-1.386857,43.538028999999995,segment,ign,2018-10-20
ban-position-1b4cea04804c46cfbd1f2942b2f471e4,ban-housenumber-4d76a5777f8c41a3923b423f5856793d,40310_2015_12,ban-group-85a8b7f035e647858084f0c220274c11,403102015,12,,Chemin de Jus,40140,Soustons,40310,,350654.439206707,6303865.0270392,-1.338558,43.747411,parcel,dgfip,2018-10-20
ban-position-4506d72711204798a3daad0761fdf5bf,ban-housenumber-d4b28ac9c0fd47bd8a9c4356646b2e6d,40065_6163_4,ban-group-eeadb4d9e69b423f8104f25fee808eb5,400656163,4,,Allée du Boute-hors,40130,Capbreton,40065,,342476.53698088,6291158.33110452,-1.431063,43.629166,parcel,dgfip,2018-10-20
ban-position-2f4c24f0f9784474bb7a2e92fdf5333e,ban-housenumber-cc838a27ec9442988552d88175184f83,40107_0015_1075,ban-group-f5c1b409b40142b5808d47909f1fd435,401070015,1075,,ROUTE DU BRAC,40110,Morcenx-la-Nouvelle,40197,Garrosse,384766.49018697103,6332746.65304444,-0.9335049999999999,44.023042,entrance,ign,2019-04-05
ban-position-e79a192a82b44cceb7d6cd60a12eb87d,ban-housenumber-0e0b6715d86445e1bb6f8b85bc870429,40192_1334_12,ban-group-4ad75e0fc47c40ffaa72a4ace04af07e,401921334,12,,Rue Léon Gambetta,40000,Mont-de-Marsan,40192,,418708.26129214396,6316450.64336263,-0.501556,43.890921,parcel,dgfip,2018-10-20
ban-position-5b36c0331e26443b97a8b8ee318470cd,ban-housenumber-4fa9ec5c2dc845a2809f558b619a854a,40296_0033_43,ban-group-42cd3559fb284a1fa084df4437e6a50e,402960033,43,,Avenue des Candelons,40510,Seignosse,40296,,343316.530817497,6299679.04956199,-1.426588,43.706139,entrance,ign,2018-10-20
ban-position-f22616a56f0b44ee941c5fedbb1d43f2,ban-housenumber-c50e99e4da3246348b1a999dfc510ccb,40279_0105_499,ban-group-51caacc073a74963bece41c0e030ae44,402790105,499,,Rue des Cibles,40990,Saint-Paul-lès-Dax,40279,,373434.694979081,6301383.30509852,-1.054581,43.736000000000004,parcel,dgfip,2018-10-20
ban-position-96e7229841c64e66b096d8de04d2cb53,ban-housenumber-b3217668ffed4bd384dd282cc56145c8,40246_B192_177,ban-group-bbbab035cb84487c85a689fca240e720,40246B192,177,,l'Orient,40630,Sabres,40246,,401583.210708545,6345352.78361045,-0.731413,44.143710999999996,parcel,dgfip,2019-02-17
ban-position-f116c0b13c774f929da12c60ea140ca5,ban-housenumber-269d23c9ab814e17be40011469e3161d,40194_0024_14_bis,ban-group-7798e24182ba466ab020c2de1eddf566,401940024,14,BIS,Route de Dax,40380,Montfort-en-Chalosse,40194,,390474.271436205,6297641.10448292,-0.8411049999999999,43.710031,segment,ign,2018-10-20
ban-position-0a830c56657147f49813cfd87753670e,ban-housenumber-6adfad717c3e478b8585f1dfc3100b23,40274_0065_2057,ban-group-c1d674f2b59942d3a769438d56c10840,402740065,2057,,CHEMIN DE BESLE,40090,Saint-Martin-d'Oney,40274,,407793.947521282,6318517.70152948,-0.638415,43.905065,parcel,dgfip,2018-10-20
ban-position-32cc4aae61784eb09197f8bb23b6dff1,ban-housenumber-c9beaeb44481479fa0a11e5c00a35932,40146_0125_1927,ban-group-ceee5036054f454ea8f32d2ef0cd8f17,401460125,1927,,Chemin de Lamenchaou,40800,Latrille,40146,,434375.71620325797,6284173.85212437,-0.290028,43.606807,segment,ign,2018-10-20
ban-position-8b94e44e120247afa2a409bc4c96d504,ban-housenumber-781ab846698e4c2d9d7f00cc768514c0,40078_0102_146,ban-group-bce9aa7869914dc88945eced7ba73269,400780102,146,,ROUTE DU PONTIC,40250,Caupenne,40078,,397029.51761875703,6294294.66460113,-0.7579060000000001,43.682790999999995,entrance,ign,2018-10-20
ban-position-ed5e91ae9b2c405084e5074c9006dd36,ban-housenumber-6a5f19341dec4f4fa4d282e08965680f,40273_0815_1,ban-group-46e70a5a70b74a9fb3f64966a263cf2d,402730815,1,,Allée de Lavielle,40390,Saint-Martin-de-Seignanx,40273,,345304.254385335,6279523.06772882,-1.388084,43.526061,parcel,dgfip,2018-10-20
ban-position-c5c93105731a40c28c2d499258f7825c,ban-housenumber-b1b1a836b74e4a2db589a3c87b8c6978,40192_1185_27,ban-group-8fbd3f1de2ed41b28b5407049625d4b8,401921185,27,,Avenue Jean Moulin,40000,Mont-de-Marsan,40192,,420866.49611739797,6316798.03708109,-0.474915,43.894902,parcel,dgfip,2018-10-20
ban-position-cb3202c09fb1472991e6753581941fa2,ban-housenumber-644a26a4f0134781a0f2943148f19c89,40328_A050_101,ban-group-27ad9253da7d4d209714b52d60c7f442,40328A050,101,,Résidence de l'Océan,40480,Vieux-Boucau-les-Bains,40328,,345199.457102724,6308213.76293475,-1.4091770000000001,43.783766,parcel,dgfip,2019-02-14
ban-position-0c7245c24ca14bdcad74c1098f5c2ff5,ban-housenumber-df20565d9b7942cf99e085dbeda1041a,40279_0393_2,ban-group-23c208e8675343008830605c28c80515,402790393,2,,Rue du Maréchal Joffre,40990,Saint-Paul-lès-Dax,40279,,374124.77480424294,6300494.16406291,-1.0454629999999998,43.728328000000005,parcel,dgfip,2018-10-20
ban-position-d048af3dc0f04008a64f0861f4635bb6,ban-housenumber-4b8b05c8508f42948c82566e874dfaa7,40122_0095_75,ban-group-12d062b6ab524cdb97e9ad4afc12d851,401220095,75,,CHEMIN DE BIGARRE,40280,Haut-Mauco,40122,,414270.212584831,6309167.28733027,-0.552651,43.823659,parcel,dgfip,2018-10-20
ban-position-5e12ba6f5d4b48d3b8b7fcd3d3037f9e,ban-housenumber-bbcd48855b6f4c139035c8b1d09cb67f,40192_1040_72,ban-group-079ef745216044e6976a0202b5e60eb6,401921040,72,,Boulevard d'Haussez,40000,Mont-de-Marsan,40192,,418219.802401474,6316737.61814529,-0.507787,43.893306,entrance,ign,2018-10-20
ban-position-ff13e636d3e5467ba8c70a5c344ae5d8,ban-housenumber-6c1580538357442794a58beb580ead2d,40202_0035_157,ban-group-2d82ad5e964a463faa8e19396c549ae4,402020035,157,,Route du Bois,40180,Narrosse,40202,,375836.366818607,6295570.65600261,-1.021142,43.684869,entrance,ign,2018-10-20
ban-position-dd8f9afdc4df4272a2d4b03d547342d1,ban-housenumber-4d3f944109bc4f268c0b9296ec3bbeeb,40184_1840_28,ban-group-a7ff40f70d314dc5a1c61138bb56598e,401841840,28,,Avenue de Woolsack,40200,Mimizan,40184,,362030.947508667,6355475.44864953,-1.231863,44.216764000000005,parcel,dgfip,2018-10-20
ban-position-d9b750d982b244a2b4f06e167ff27ad3,ban-housenumber-5a68cef7ec104e0ea7b401aa71238969,40312_1152_1,ban-group-a9d380e3b16247b48d711a0f7d413cf3,403121152,1,,ALLEE LEO FERRE,40220,Tarnos,40312,,340316.026090628,6279542.13135884,-1.4496790000000002,43.523722,parcel,dgfip,2018-10-20
ban-position-c994affe92624fea8bc1fac52180bff4,ban-housenumber-33e18ff4e0d64645a95bfe499ac7cee3,40281_0275_147,ban-group-4555e71a2f994fbbb643bd05cc2bcc2d,402810275,147,,Rue Coluche,40280,Saint-Pierre-du-Mont,40281,,416969.598012275,6316318.2530705,-0.523097,43.889035,entrance,ign,2018-10-20
ban-position-ed3e3c92aa134c38a216a651ec342dfa,ban-housenumber-23b8eb2620e544708dfcceafad616f99,40230_0650_615,ban-group-88aa13f23fd84745aa8c37e1ebd72ee7,402300650,615,,Rue de Lesbordes,40465,Pontonx-sur-l'Adour,40230,,384008.680834576,6307236.114263,-0.927127,43.793407,parcel,dgfip,2018-10-20
ban-position-10355b9b83ef4d02840634aab3d8c632,ban-housenumber-fa18e09cbc04426bbb67d45ac3eed47a,40263_0001_1151,ban-group-8c1e8ceca6a84e009ba8be158db21c2c,402630001,1151,,Route du Val d'Adour,40380,Saint-Jean-de-Lier,40263,,387310.32178391103,6305625.79443095,-0.885177,43.780403,entrance,ign,2018-10-20
ban-position-4f8ba3a37dd045d6ab2e5e04f6233a57,ban-housenumber-fe3f566dd2b64e839d8f7096c46dae4b,40187_A054_6,ban-group-49940df8aacd47ff966cb87645401884,40187A054,6,,Résidence Marina,40660,Moliets-et-Maa,40187,,347716.650613335,6315348.40189058,-1.382876,43.849131,parcel,dgfip,2019-02-17
ban-position-14261b7718ec43fb988954b85f6e4fdf,ban-housenumber-deb587d73c364b31b4336abdb59f9283,40046_0068_89,ban-group-aa7330e33b1e49ea8d3e2f5f22108b9a,400460068,89,,Impasse des Arbages,40600,Biscarrosse,40046,,369388.506527621,6372519.65482919,-1.151116,44.373482,entrance,ign,2018-10-20
ban-position-c3f953ec2f7e4da490e85b2845d6c317,ban-housenumber-51b774b373c54f15819b3521bfb1ab2b,40293_0041_2,ban-group-6ebbb23013094e6b8d512e5d48adc019,402930041,2,,Impasse du Cassiet,40180,Saubusse,40293,,362275.30600722,6293607.35505857,-1.187763,43.660887,entrance,ign,2018-10-20
ban-position-08cb7ebeedaf4f68980912e603bb6627,ban-housenumber-1dd42bf13d654a6282102c4438567aa7,40250_0125_815,ban-group-4748eaf182894ebebb1fec3053eb393e,402500125,815,,Route de Loustalas,40090,Saint-Avit,40250,,424287.18427863397,6322425.33938372,-0.435431,43.946843,parcel,dgfip,2018-10-20
ban-position-f89d0c299e5a40339dac36a0fc998c78,ban-housenumber-98cd81801ef4431fa1f1034370be19a0,40046_1270_295,ban-group-836d5ae8ba90475fa5200689c6d67e95,400461270,295,,Rue des Mimosas,40600,Biscarrosse,40046,,362620.27592944104,6381600.59516814,-1.242055,44.451875,parcel,dgfip,2018-10-20
ban-position-fcdcf6a3cfa64834aeb194b0ef91f8f8,ban-housenumber-a4a993d0a3624898b2058dac0c1e94a3,40192_2195_7,ban-group-e79eedcc14f54f4598f59cff6dda45ce,401922195,7,,RUE DU SGT CHEF MICHEL MIGNOT,40000,Mont-de-Marsan,40192,,417090.78591885295,6317018.4860441,-0.521979,43.895379,parcel,dgfip,2018-10-20
ban-position-c6e52b8d973741d0b09d076c2c97732b,ban-housenumber-75632db377b34de6960781c6aad02ddf,,ban-group-77dfdc45e9224a15955a71ea6988acff,,2,,CHEMIN DU CULASSIER,40400,Audon,40018,,392965.83464262204,6305941.82344548,-0.815207,43.785724,segment,ign,2018-10-20
ban-position-b42891919bf247bd8f8bbf69c6bfe2f9,ban-housenumber-2765124a99884ff79eb524fe181ed79b,40212_0095_218,ban-group-b11ad136c4d14f82ab9346b7471d7357,402120095,218,,CHEMIN DE BASTA,40300,Orthevielle,40212,,365093.43220524205,6283852.60786361,-1.1465370000000001,43.574576,parcel,dgfip,2018-10-20
ban-position-fa3a8d8c92e848f2bcd4cac11a7c9cf2,ban-housenumber-bda1ee24f94b4ddd9f652e4f20ac831b,40209_0280_66,ban-group-4c8819d0fbf04c769fb0c1fd1a5b4376,402090280,66,,Impasse des Arbousiers,40440,Ondres,40209,,339505.96771893103,6284215.20989528,-1.462943,43.565289,segment,ign,2018-10-20
ban-position-5ef435c637084ae6bcbf225cf9171112,ban-housenumber-6963d99785ef401797530cb1cce12f8c,40192_0791_1427,ban-group-026d25fff0fc4230b00a51756236a31d,401920791,1427,,Rue de la Ferme de Larrouquère,40000,Mont-de-Marsan,40192,,421965.080397809,6318396.00393898,-0.462128,43.909703,entrance,ign,2018-10-20
ban-position-dbd9096776514108ab21c63fa6766d84,ban-housenumber-e9015a7421d4464abbfa53aea3cd9d41,40310_B267_2402,ban-group-291b5b5278ef4d04b931e9060f07900b,40310B267,2402,,Quartier de Laudouar,40140,Soustons,40310,,349750.150996805,6306995.09044817,-1.351906,43.775087,parcel,dgfip,2019-09-28
ban-position-e82cdaf282b74f409dd2bbe300b7dcb2,ban-housenumber-98373ca466ec4bcf9b38c62ac88a342d,40075_0089_236,ban-group-84c227930bd949859b65457b8370af65,400750089,236,,Rue de la Grande Lande,40260,Castets,40075,,367456.95256969705,6318586.01486174,-1.139853,43.887807,parcel,dgfip,2018-10-20
ban-position-8f7f7cc3014c4fbab51ea6f3a48f1833,ban-housenumber-d30cb46fec344aab954d95f3fdcbbb01,40291_0230_9,ban-group-f5b73937d56343cda006014ccf454a24,402910230,9,,Rue des Oliviers,40230,Saubion,40291,,349445.629274974,6295790.7444929,-1.348024,43.674268,parcel,dgfip,2018-10-20
ban-position-fc28b971b53943ca8de0e91060c86442,ban-housenumber-53c604e377ff4666adfbc09918136ce1,40125_0051_16,ban-group-366154c454ae4c8f83537a258b1628a4,401250051,16,,Impasse de la Garenne,40180,Heugas,40125,,370222.02089310397,6291033.99218184,-1.087752,43.641509,entrance,ign,2018-10-20
ban-position-4823154d0e224a76a79d1e2ea2b36197,ban-housenumber-31642769a4b24c9c878bf93157e0030c,40031_0080_168,ban-group-f3bc55927b2e422d99bd99c4ef4bd587,400310080,168,,Route du Chaisier,40400,Bégaar,40031,,390197.48446410295,6310539.05085908,-0.8523370000000001,43.825835999999995,entrance,ign,2018-10-20
ban-position-456c43eb943c4cef8f07f9eea9d5efa9,ban-housenumber-043161e1bcc44f4d9b01112e1f34e067,40266_0070_432,ban-group-9338228f48964b8d9a685a7fc3fdbcdc,402660070,432,,Boulevard de la Plage,40170,Saint-Julien-en-Born,40266,,354034.44160947896,6342339.04403612,-1.322797,44.094803999999996,entrance,ign,2018-10-20
ban-position-eeaf112569f240b2a61a013c2e598034,ban-housenumber-33e8217f0b07454a9ffc5f7fe1e495f8,40279_0036_2,ban-group-887978ca113843419dfdd63af623daf9,402790036,2,,Rue du Béarn,40990,Saint-Paul-lès-Dax,40279,,372470.362951332,6299932.13028603,-1.065606,43.722513,entrance,ign,2018-10-20
ban-position-c6b2beeecaae4ae3aad0e741269c2c1e,ban-housenumber-a76593a428074445aada9319fbe271e9,40064_0040_556,ban-group-337c07c02bc84c9292fbbc6b1ed49776,400640040,556,,Route de Cère,40090,Canenx-et-Réaut,40064,,422044.38408064103,6328885.7678694995,-0.466873,44.004048,parcel,dgfip,2018-10-20
ban-position-7da20445b6724501abd7e1a45c63d7b1,ban-housenumber-32f228978a844378a3d188078f714a69,40307_0032_1140,ban-group-a22f71fb052c45c78c3d775ecb241034,403070032,1140,,AVENUE DU GENERAL DE GAULLE,40430,Sore,40307,,413083.217417992,6365076.06775206,-0.599052,44.325853,parcel,dgfip,2018-10-20
ban-position-a9769de1dc96418389dbeb724cc12bef,ban-housenumber-7328a3a0ec6e402991c961e5bf1d8b5e,40331_1200_66,ban-group-8a54746e1d1e490fbe5c05c4e2f47648,403311200,66,,Avenue du Petit Brut,40190,Villeneuve-de-Marsan,40331,,434187.92691525206,6316760.95151446,-0.309257,43.899716999999995,entrance,ign,2018-10-20
ban-position-589c755e188543009d01ff012f5584af,ban-housenumber-d1b6aa521cfb426e924eb3d6054961cf,40192_1675_9,ban-group-4f01ac16fa4246c4a391a3ca8da66be4,401921675,9,,Impasse Paul Lacome,40000,Mont-de-Marsan,40192,,419679.369830905,6315957.15248501,-0.489212,43.886871,entrance,ign,2018-10-20
ban-position-3d10621370d14cb891a000a2fca8c4af,ban-housenumber-231c17b517bf425b9b9c6f492109fa94,40046_0160_1126,ban-group-2ab1f3289c224decb0fcc2f3fa989b1e,400460160,1126,,Route de Bordeaux,40600,Biscarrosse,40046,,369535.453380815,6377280.59144316,-1.152415,44.416349,parcel,dgfip,2018-10-20
ban-position-a2346d09fd0e40818a504a5953867162,ban-housenumber-389159f7831e4b8ab409738b585a7d58,40192_0165_85,ban-group-8a74f769ae9442b99f7b941c1432295e,401920165,85,,AVENUE BARBE D OR,40000,Mont-de-Marsan,40192,,421312.584480851,6317700.14044262,-0.469862,43.903189000000005,entrance,ign,2018-10-20
ban-position-8e34658e1c6244eeb432b155b2f31c3f,ban-housenumber-43321b22345b4af3b68b8402a00285dd,40052_0060_125,ban-group-932d6b488596481cb48b9775eb5cdcfb,400520060,125,,Rue du Bas-armagnac,40190,Bourdalat,40052,,442103.260699147,6309607.41403739,-0.207209,43.838334,entrance,ign,2018-10-20
ban-position-08f63cd32d9a47c088548c235fb28aba,ban-housenumber-b0d67d9d98844146a19170832fa75634,40284_0105_2,ban-group-d6d1a0d63c6d48d2bec52049fc6865e8,402840105,2,,Rue de la Flêche,40230,Saint-Vincent-de-Tyrosse,40284,,352274.174709683,6294851.23934447,-1.312375,43.667221999999995,entrance,ign,2018-10-20
ban-position-1a6c3efdcc8a4af1be9d642e5dc27e83,ban-housenumber-22e437db1f3342c39a898e46773efec4,40134_0300_15,ban-group-5c379149390a4c37997fdf8b1adb56ef,401340300,15,,Rue des Cerisiers,40210,Labouheyre,40134,,387060.98517262604,6352863.30921574,-0.917364,44.204904,parcel,dgfip,2018-10-20
ban-position-938eb2ef62384d4c9a07a6bf0462e3b4,ban-housenumber-120cd9732cdd48c8a291a1b72f5b29f5,40150_0642_191,ban-group-126fa19a9c1b47aa820ee15fa903ae8e,401500642,191,,Chemin du Yert,40550,Léon,40150,,353863.02656653,6315249.92709447,-1.3064930000000001,43.851288000000004,segment,ign,2018-10-20
ban-position-634ad3d4e86d40fba0865e42b662507a,ban-housenumber-0253324023514a0f9c66bcca8bd8cb3b,40284_1260_14,ban-group-1f4fd15b46fd4d8f9bac37603086b8d8,402841260,14,,Chemin des Faons,40230,Saint-Vincent-de-Tyrosse,40284,,352543.208676817,6295071.38240267,-1.309194,43.669332,segment,ign,2018-10-20
ban-position-40d49de3db47433d8ba503d29b5e2fb1,ban-housenumber-491f3bfcd5004863a87c1b44afbca1f5,40071_0005_205,ban-group-09a783bcb48541368e7cfad7fb36697a,400710005,205,,Chemin d'Arricaou,40360,Castelnau-Chalosse,40071,,389651.002518096,6291602.98425128,-0.847657,43.655403,entrance,ign,2018-10-20
ban-position-9e7a36d213ec4da3b21c6b7de0a61abd,ban-housenumber-cf9eff1def394200a17f396494ebe44c,40133_0205_5,ban-group-81c894cede024db3a1d9b8662d05fb71,401330205,5,,Rue des Jonquilles,40530,Labenne,40133,,342792.934639199,6287735.24638982,-1.424775,43.598574,parcel,dgfip,2018-10-20
ban-position-792a79afae6c4206bd82085bf7bea498,ban-housenumber-c017fe0da78a4741baf0fc886718be5e,40304_0075_248,ban-group-e650467a6bc04239a41d35e89f7b47df,403040075,248,,Avenue des Bouvreuils,40150,Soorts-Hossegor,40304,,342196.27152316,6295291.63345641,-1.4374049999999998,43.666157,parcel,dgfip,2018-10-20
ban-position-48ee508d98564d3499e29b32a31ae730,ban-housenumber-e4e27a7502d94e83845a1cf309e8ee4e,40192_1890_7,ban-group-63e36cd4093d42eca046d40a3de961f5,401921890,7,,RUE DU 4 SEPTEMBRE,40000,Mont-de-Marsan,40192,,418807.174187776,6316330.35473028,-0.50026,43.889879,entrance,ign,2018-10-20
ban-position-e646ff6525c94a17a9cdcdaba600d986,ban-housenumber-44990b6931344ef285c1f2c343ae32fe,40317_B030_556,ban-group-760a9cb0959d4faea4b0448a055e31f0,40317B030,556,,Lacomian,40230,Tosse,40317,,351955.28498040396,6297832.72489242,-1.318342,43.693853000000004,parcel,dgfip,2019-02-14
ban-position-ca9b55c74e26413cb7e3b1007948f6d2,ban-housenumber-831694c19def4007856414901ad182a8,40196_0095_760,ban-group-544317e7ab43496691c54f7516b646d1,401960095,760,,ROUTE D HAGETMAU,40500,Montsoué,40196,,417105.060275206,6298389.52382993,-0.511495,43.727911,parcel,dgfip,2018-10-20
ban-position-27af5a0bc235409c975d069e6e94f33d,ban-housenumber-67190b0ee9834ac7915db52ec382c392,40296_0271_7,ban-group-f5368cbf89f946cda2912f0df3780733,402960271,7,,Avenue de la Paloumère,40510,Seignosse,40296,,342736.499093742,6298504.71245895,-1.432954,43.695296,parcel,dgfip,2018-10-20
ban-position-ea54fcf3c1794422a78a2769d758f6e9,ban-housenumber-fc81d2c77adf4313bd6371c535ba9cee,40088_0230_5,ban-group-72779a2a46ec4bd18d95420f6931998d,400880230,5,,RUE DE BENEDIT,40100,Dax,40088,,373213.732619806,6297041.45584286,-1.054554,43.69688,parcel,dgfip,2018-10-20
ban-position-1dd7d0168b2248c9927abcd09d580137,ban-housenumber-458ceb9981d045e8af23fb319aedf7c9,40281_0370_15,ban-group-2a666dc3698a4f30874e8002c2706f82,402810370,15,,Rue des Erables,40280,Saint-Pierre-du-Mont,40281,,419821.06309680204,6314967.51859951,-0.486907,43.878029999999995,entrance,ign,2018-10-20
ban-position-4fc64b9c62ed4db2b0da0615ef9040dc,ban-housenumber-97109bb95dce4e47befc02137b7b1e7b,40313_0111_293,ban-group-33025e529e434f43b9bda31d953e0cb1,403130111,293,,Cours Saint-jacques,40400,Tartas,40313,,393817.23220009706,6311005.94602694,-0.8076760000000001,43.831612,segment,ign,2018-10-20
ban-position-b40ed300d08b4f5b9972d3cff72162a2,ban-housenumber-2f57838320374c3bb372c3d5991cfc09,40033_0040_145,ban-group-b93b95864b8349e0bdbd28315e71c0ec,400330040,145,,ROUTE D ALBRET,40120,Bélis,40033,,422650.69850457896,6335518.3841046,-0.462946,44.063924,parcel,dgfip,2018-10-20
ban-position-1a9409c3743a4a2c86805264315fc0e7,ban-housenumber-7fa567f4c47f4a0b9ac596ca60af202b,40320_0040_57,ban-group-aa00edbff54443909d76153b9ae91895,403200040,57,,Impasse de Laborde,40090,Uchacq-et-Parentis,40320,,416225.69999999896,6321333.49999999,-0.535137583101846,43.933825241338205,entrance,ign,2019-07-19
ban-position-d7087b6f02014cab80c1f48610e718a8,ban-housenumber-da4aa9b57a3e4741a97dc71e325e226d,40282_0960_10,ban-group-ad0f04ac25c74a1bb92c47db47395425,402820960,10,,AVENUE DU MARSAN,40500,Saint-Sever,40282,,412654.05419447896,6303583.50588414,-0.5695819999999999,43.772807,parcel,dgfip,2019-01-31
ban-position-734e29242b99414ca90fa51b39997316,ban-housenumber-cc828028af1f4364853e938a38ce7445,40231_0220_82,ban-group-88e6459fcb8048c5b69173a9381db221,402310220,82,,CHEMIN DE COUNDOUMET,40300,Port-de-Lanne,40231,,362913.70991081104,6283048.78565516,-1.172949,43.566321,parcel,dgfip,2018-10-20
ban-position-de6a229369684c2cac5961f562026f32,ban-housenumber-b0707f39e2ec4d88b786a56ff896ae12,40065_1733_4,ban-group-fcca086638214e48aece214eb3e3144d,400651733,4,,Rue du Hapchot,40130,Capbreton,40065,,344202.546016465,6293207.34775256,-1.411133,43.648443,parcel,dgfip,2018-10-20
ban-position-bb994b25e3114aeaabc08922332d0cf4,ban-housenumber-d9399b0071d742dfa0b9775ebc5dc8b4,40245_0107_211,ban-group-5f8efa03e73d48ffa1a6b797fc1f7242,402450107,211,,RUE DU PISQUE,40120,Roquefort,40245,,433612.970569129,6332058.5822610995,-0.32442,44.037053,parcel,dgfip,2018-10-20
ban-position-869fa7c2c8934a62bd90768ce1786845,ban-housenumber-7e366aea34b5408b8041040dca76678f,40039_B042_81,ban-group-6b9524e6a0604455bf4cce34fd2c7cb3,40039B042,81,,Porteteny,40240,Betbezer-d'Armagnac,40039,,444847.69965235295,6326065.79417208,-0.181358,43.987328000000005,parcel,dgfip,2019-02-14
ban-position-c55bb33b105e44f397d16d31ccca2b92,ban-housenumber-8a48202ad5fa41bc9884efe3f3ecea3a,40131_0002_5116,ban-group-edf6adb1f7fa4b1aae54b32364c86b71,401310002,5116,,Rue de la Viguerie,40240,Labastide-d'Armagnac,40131,,444363.107176358,6324211.33494206,-0.186461,43.970476,segment,ign,2018-10-20
ban-position-35f03411a87a472d9bfaa8055393fe68,ban-housenumber-65b516fd78514e0fb3ba05c7e571c10c,40046_1688_12,ban-group-62fd1361900d4c9b83476d9d6aa928be,400461688,12,,RUE H MARIE DE TOULOUSE LAUTREC,40600,Biscarrosse,40046,,369204.708888225,6375527.35415514,-1.155405,44.400432,parcel,dgfip,2018-10-20
ban-position-b4e82273859c41c6bc567c7d617aebff,ban-housenumber-105dfeec1c904d368e294a5f5c084273,40331_0019_10,ban-group-1b4cd6f837e24ef4aae50fe85da50ead,403310019,10,,Chemin de la Côte Rouge,40190,Villeneuve-de-Marsan,40331,,433939.580666198,6315292.62864447,-0.311579,43.886421,segment,ign,2018-10-20
ban-position-c35111de270d4efbb3275b88f29a32e4,ban-housenumber-ab429948292a482a99c29e38975d3f97,40304_0107_218,ban-group-91f1169aa9b84bfbb156d23c2ff40858,403040107,218,,Avenue du Centre,40150,Soorts-Hossegor,40304,,345571.56250020897,6294857.77570867,-1.395333,43.663957,segment,ign,2018-10-20
ban-position-9f5925f026974e068ec3aacb93cc402e,ban-housenumber-bcf2b954fc324b7bb5cee8d01d0f1ed8,40002_0071_102,ban-group-843f2000deb74fe6b0816c70c98bf18a,400020071,102,,CHEMIN MOUSQUERO ARNAUDET,40330,Amou,40002,,397858.003510898,6285421.60352728,-0.742433,43.603396000000004,segment,ign,2018-10-20
ban-position-e54e4444af9e494d9a2e6de372339e87,ban-housenumber-7d3326e8e5f04beabf166cb9b07b6c74,40181_0010_4370,ban-group-04592e3b9de54c148c86b1d3d9e3bec1,401810010,4370,,Route d'Azur,40660,Messanges,40181,,352456.861544994,6309256.94881322,-1.319878,43.796746999999996,entrance,ign,2018-10-20
ban-position-4562bd3d78344fc7a05ea289410fa61c,ban-housenumber-924360ceeb3c4599b267fa87445e6590,40209_0780_90,ban-group-c7c82f6874a040b5bae7994978fc5bf0,402090780,90,,Allée des Peupliers,40440,Ondres,40209,,340455.908243243,6284656.12629355,-1.4515149999999999,43.569732,entrance,ign,2018-10-20
ban-position-9ab8001ea2504711b875e9e1f84b5a9d,ban-housenumber-c1a09f384d8040a1bcaf2f057bd8d0ab,40231_0160_24,ban-group-20d76e7538414ec6875b103d8fd51ae2,402310160,24,,Chemin de Birounde,40300,Port-de-Lanne,40231,,362480.676010419,6282708.42718899,-1.178077,43.563057,entrance,ign,2018-10-20
ban-position-2bb8a3061198495ba9c7a83915f602bf,ban-housenumber-ffee93210c1e4bfb86cef3078da734b8,40286_0630_1,ban-group-22cf521640a647ceaf83f8f41c13939d,402860630,1,,Chemin de Pierrot,40320,Samadet,40286,,417681.837793652,6289631.08500513,-0.49953000000000003,43.649409000000006,entrance,ign,2018-10-20
ban-position-29836bd75be641ceb91a479e8f9d2967,ban-housenumber-edd9e0b0f0b0476fa61ec32adaa3739b,40031_0360_180,ban-group-ebc8a0d98a7d435c9cfc68f5f819724a,400310360,180,,CHEMIN VIGNERON,40400,Bégaar,40031,,391001.00872007705,6311602.18560323,-0.8430040000000001,43.835744,entrance,ign,2018-10-20
ban-position-e37db4f4c0bf4874b807ae1c1dd006e4,ban-housenumber-589411a68db24829b634b66876627087,40192_0033_20,ban-group-26681b6b29194b6ab63e8ac9c4e0269b,401920033,20,,Rue Adjudant Chef Clapot,40000,Mont-de-Marsan,40192,,418484.916170297,6316900.57894779,-0.5045810000000001,43.894877,entrance,ign,2018-10-20
ban-position-ff3a806d043c49a1af897a3e33a50772,ban-housenumber-5ad84fcf86554bbca2d4bb4b0fd6c48f,40233_0705_725,ban-group-3156083e792f49929b3d73dcb07240d1,402330705,725,,CHEMIN DE LAULOUET,40350,Pouillon,40233,,379982.291033971,6286417.56478975,-0.9641049999999999,43.604501,parcel,dgfip,2018-10-20
ban-position-7cb29304fc5c4563941d5f533079cbaf,ban-housenumber-799c2740a3784bf68530cf4eae526ba9,40304_0054_43,ban-group-f4474df383514d189de9e1ba99f7383b,403040054,43,,Avenue des Biches,40150,Soorts-Hossegor,40304,,344643.133659839,6294797.37753035,-1.406781,43.662949,entrance,ign,2018-10-20
ban-position-5324e2a056d548729d2122ee887edfa8,ban-housenumber-c8230bcf5de6483aa56e5e2779c2720a,40315_0245_159_bis,ban-group-7996285f1aa94f969d4cd176b8387802,403150245,159,BIS,Rue des Fontaines,40990,Téthieu,40315,,380063.625659522,6302864.24660895,-0.973342,43.752340000000004,parcel,dgfip,2018-10-20
ban-position-8bff00a5c5454228b8726baf7480c29c,ban-housenumber-2bc24161cf824bf9bde46a928074623b,40328_0307_19,ban-group-604bcf7a8503475fab06faac9bdf349f,403280307,19,,RUE DOCTEUR PIZERRA,40480,Vieux-Boucau-les-Bains,40328,,345150.314381292,6308481.40452743,-1.409972,43.786146,parcel,dgfip,2018-10-20
ban-position-a1ba9856c12b4f3fa22768d9bbecb10e,ban-housenumber-d4d59a5754104cdcaa3363320b2761ba,40192_0904_140,ban-group-e53a79eb42e14481b0d01ff5d9dcbdd3,401920904,140,,Avenue du Général de Monsabert,40000,Mont-de-Marsan,40192,,421990.464364761,6315145.7588895,-0.46003999999999995,43.880491,entrance,ign,2018-10-20
ban-position-f43a8251abb0471cbc5f476deb06bf47,ban-housenumber-472d5423699c49c68657242d8d05b9a8,40192_0411_4,ban-group-7eb9c7ba72594caaa91f79695935d13a,401920411,4,,RUE DU CAPITAINE MARCEL DUPOUY,40000,Mont-de-Marsan,40192,,418022.96145104204,6316847.58977949,-0.5102949999999999,43.894216,entrance,ign,2018-10-20
ban-position-e46286d8f57f4c6b9e8a3695806aa2f2,ban-housenumber-8562bb1c06684f709ebb557b7283985e,40287_1290_187,ban-group-2a9677cd0e3f41c6b334e4db8f586f62,402871290,187,,Chemin du Pignada,40460,Sanguinet,40287,,377553.306553116,6385359.58554589,-1.057058,44.492728,entrance,ign,2018-10-20
ban-position-afd602a9213045fe9a6da57d93b6bce7,ban-housenumber-5d7c438e42c544b9b098d71eff6c9c49,40283_0250_100,ban-group-9c10b2f3b66a4e19a403f1813851bcb9,402830250,100,,IMPASSE DE LA BRUYERE,40990,Saint-Vincent-de-Paul,40283,,378111.076585152,6302309.0486653,-0.997201,43.746464,parcel,dgfip,2018-10-20
ban-position-628f0f523a354b9a9923b5ee6ba646b6,ban-housenumber-aca0a73b242f4870b706a57bf10e4f2a,40019_0035_1126,ban-group-d3953ab12d714114aa0cc54603b37fbd,400190035,1126,,Route des Lacs,40200,Aureilhan,40019,,364982.399999999,6355140.49999999,-1.1947537387803,44.215170272154204,segment,ign,2019-02-04
ban-position-1c416e2efb7146a0a8690e11fe199b30,ban-housenumber-0b4d34763381403cb3c1b5062af8fb9c,40168_0438_16,ban-group-da08785349a64abdb42516b6ab06660b,401680438,16,,Rue des Résiniers,40140,Magescq,40168,,360074.621033045,6307472.10391402,-1.2241879999999998,43.784416,parcel,dgfip,2018-10-20
ban-position-e2fbf87763ac4e829b67eb6b7360db3e,ban-housenumber-222112e36f03451aad4cc0f56546db24,40328_0310_51,ban-group-3e1f3a188cfd4d56a597b56d2da6a29b,403280310,51,,Avenue de la Plage,40480,Vieux-Boucau-les-Bains,40328,,344891.264301625,6308723.946902901,-1.413353,43.788195,entrance,ign,2018-10-20
ban-position-17e4fb3c63aa4b94b859dd64927c7add,ban-housenumber-ab329827d21744b7a317786b3d12cf73,40152_0090_250,ban-group-0bedc4ebc9504813936e17b005f8313b,401520090,250,,ROUTE DE BOURREGUET,40260,Lesperon,40152,,371436.159819795,6327177.73543522,-1.095948,43.96689,parcel,dgfip,2018-10-20
ban-position-71c0b438b7204a2691a4cc7ce0969af8,ban-housenumber-6039d126b1e0442bb2eb8d17a5e0345e,40192_1446_1,ban-group-0c3779bf86fe42869596ebfc92597ca4,401921446,1,,Allée Michel Devauchelle,40000,Mont-de-Marsan,40192,,421210.836999999,6316894.21999999,-0.470686439827914,43.89590299177589,entrance,ign,2019-07-19
ban-position-2dbdf5bb1d964f10b44719c74c267e34,ban-housenumber-f557d404730940ac9caf90966ff91c92,40001_0790_8,ban-group-a4ff49eecb07475f91e4f8ad34611552,400010790,8,,Rue du Pont Rouge,40800,Aire-sur-l'Adour,40001,,437485.314967476,6294209.46221608,-0.25668,43.698189,entrance,ign,2018-10-20
ban-position-457795602a544ce4b649ea43ef8d0674,ban-housenumber-38bb65dd711c4661be6779a2fe76e65f,40157_0070_5,ban-group-32bac3c425b84d9ea91f53cda5267b86,401570070,5,,Rue Henri Crouzet,40170,Lit-et-Mixe,40157,,359091.906209605,6335064.71395495,-1.2548350000000001,44.031901,segment,ign,2018-10-20
ban-position-e008166c3ab0405bb85d64bc67eb92f9,ban-housenumber-0b981663f6f64c93ad24707aeadea723,40088_0430_25_bis,ban-group-5adc7096c59d4953be6e77da7eeb4964,400880430,25,BIS,Rue du Château d'Eau,40100,Dax,40088,,371953.33607859997,6296968.59099744,-1.0701180000000001,43.695642,parcel,dgfip,2018-10-20
ban-position-f54935fb89914f658ae9136c94110519,ban-housenumber-f877254e8e064aa6ab0e39a8461c9cf8,40304_0324_2062,ban-group-95ff0c0e5fe841b297947d4a38afe6bc,403040324,2062,,Avenue du Golf,40150,Soorts-Hossegor,40304,,344716.31092901,6294212.25719571,-1.405471,43.657728999999996,entrance,ign,2018-10-20
ban-position-00ec0cb807704a91b95f74f26283d729,ban-housenumber-cc5d13a23e7848c1ab98aa21d2ed9417,40312_1340_66,ban-group-d6cb2ff5f02c46c5a7ca24cff6f8206f,403121340,66,,Avenue Jean Jaures,40220,Tarnos,40312,,337249.479401895,6281080.71047585,-1.488615,43.535982000000004,parcel,dgfip,2018-10-20
ban-position-b3e1acbd9e6c43819c8b07c331057e43,ban-housenumber-367d843fec734576bcc2e7a4c8fa637c,40065_A053_7,ban-group-016a7545f2804cb88495d68c3357cd84,40065A053,7,,VILLAGE DE MARIOTTE,40130,Capbreton,40065,,343856.749999999,6293364.61999998,-1.41552012945949,43.6496821033548,entrance,ign,2019-07-21
ban-position-635e47630b3c41c8b78a77e736083676,ban-housenumber-b536c9ff18ce4bb882cfce1a403d1bb7,40066_0050_3620,ban-group-217d18ebb4ed4cb19a1e0e5032b8ea5e,400660050,3620,,ROUTE DE CARCARES SAINTE CROIX,40400,Carcarès-Sainte-Croix,40066,,397666.893007538,6313402.19659657,-0.761293,43.854811,segment,ign,2018-10-20
ban-position-21336264bd4d4a0baf758f9041a944d2,ban-housenumber-6d4a0867d06646a6b2750d21ec9f97c1,40310_1275_6,ban-group-d4d0deca669a4794b72b13378146e43b,403101275,6,,RUE DES AIGRETTES,40140,Soustons,40310,,350430.010032159,6303947.71461923,-1.3413959999999998,43.748043,segment,ign,2018-10-20
ban-position-f225b4ccc14a4750b3023e22290710ab,ban-housenumber-3b6069f07b06479caefa05c35093c9dc,40119_A020_1,ban-group-0ba1afcdeb054da9b1735821011bd7f7,40119A020,1,,Lotissement Bidounat,40700,Hagetmau,40119,,409209.01211649,6291510.82865541,-0.605476,43.662877,parcel,dgfip,2018-10-20
ban-position-cc60300ff9034fec9cbd8e040beb6b20,ban-housenumber-a79dbd7b01f347cba72f9e300c2925ac,40212_0225_241,ban-group-a73d798a555f4715a54ce89626a09936,402120225,241,,Route des Lavoirs,40300,Orthevielle,40212,,364664.763144706,6281165.96384875,-1.150088,43.550234,segment,ign,2018-10-20
ban-position-6ca496b042c447c0bfc5ff496dcb6a60,ban-housenumber-0ed67855a31f45a3973229e2fba7f455,40328_0038_3,ban-group-f663a7235cfc4267a2835b2491be6310,403280038,3,,Rue Hector Berlioz,40480,Vieux-Boucau-les-Bains,40328,,346614.589673741,6309296.66460231,-1.392375,43.794205,entrance,ign,2018-10-20
ban-position-b7eaac546632463f88fb1f77d641d66f,ban-housenumber-59558bdeef5443e6b4c340b8b5cb9643,40049_0160_373,ban-group-90a8967af8c7499d8f3b9417d8d7df1b,400490160,373,,Chemin de Pébon,40270,Bordères-et-Lamensans,40049,,429367.86043456604,6303207.50063719,-0.36201300000000003,43.776026,entrance,ign,2018-10-20
ban-position-f3f2253d1bbd4467b25ffd72a136b672,ban-housenumber-b9d03a75aac6479ead7c0a229fcebaaa,40279_0230_9004,ban-group-14b4379e114744bd8fe3d5fc92d2356a,402790230,9004,,Route des Gravières,40990,Saint-Paul-lès-Dax,40279,,374394.08133181295,6302354.24687545,-1.043307,43.745168,parcel,dgfip,2018-10-20
ban-position-c662b735214f454caecf72929aeee3c7,ban-housenumber-f6a148cc4d8b4820aa8d8d90df908fc4,40117_0410_38,ban-group-9bd4157ff4554c4790850c67d0ee05a5,401170410,38,,Rue des Capucins,40270,Grenade-sur-l'Adour,40117,,423965.417685599,6303005.26711868,-0.42893400000000004,43.772118,parcel,dgfip,2018-10-20
ban-position-b04172ee6a6046808d06e6f56da316c4,ban-housenumber-7ad42f4951d04242a1f394f31a936a65,40310_1250_128,ban-group-bffd170ab33d4c3f85d15470de0dc951,403101250,128,,ROUTE DE L AERODROME,40140,Soustons,40310,,353562.06422908,6301378.03623341,-1.3008389999999999,43.726496000000004,segment,ign,2018-10-20
ban-position-b2ae73e3503c4205a3cf3f01080c6851,ban-housenumber-83836bfc2ec44384b4e2c0bc4a683cc4,40192_1845_339,ban-group-55600cce491349058a5c6de89fac3087,401921845,339,,AVENUE DU PRESIDENT JOHN KENNEDY,40000,Mont-de-Marsan,40192,,418968.99742554204,6315672.935397901,-0.49788599999999994,43.884033,parcel,dgfip,2018-10-20
ban-position-583e9fad19a74ea8b87e4f03428c9825,ban-housenumber-0fb89290f161483eb50292a291907c32,40152_0190_75,ban-group-cb8444a72d3e4f0e8db440f28bc23a70,401520190,75,,Rue des Jardins,40260,Lesperon,40152,,371883.936022739,6327486.29121086,-1.090575,43.969871999999995,parcel,dgfip,2018-10-20
ban-position-cee11342cf044c27b55116f3ea84999a,ban-housenumber-1490fe0437914c10a550c795734cf915,40042_0005_152,ban-group-160f4716d10240dea59d64c2ffca0800,400420005,152,,Route du Bas Adour,40390,Biarrotte,40042,,354671.344279405,6282597.33616717,-1.274486,43.5583,parcel,dgfip,2018-10-20
ban-position-f12b09be202b43bfa8a08b20805e080d,ban-housenumber-acd9cc2d88d246e1bbc72599fbe8ec26,40201_0023_505,ban-group-0ba13e3763a64e678fa4f4fd72db1571,402010023,505,,Rue Dartigoeyte,40250,Mugron,40201,,397873.552333729,6301771.7120444,-0.7518560000000001,43.750357,parcel,dgfip,2018-10-20
ban-position-79a882bf441a47ea9994358a9208e03b,ban-housenumber-0038e46b3ef346849019817806b0cce3,40134_0360_305,ban-group-1553ac8b2edb4e38b7c62c19dc736f62,401340360,305,,Route de Commensacq,40210,Labouheyre,40134,,387287.484438445,6354039.84821713,-0.9152629999999999,44.215582,parcel,dgfip,2018-10-20
ban-position-06c43d9cdcdc465a8c0cc795c4963db6,ban-housenumber-ef350b8cf1f641d6aeaf79710eac4c41,40332_0058_30,ban-group-8025014211f94ce6a3f6cdea615aa306,403320058,30,,AVENUE FREDERIC BASTIAT,40160,Ychoux,40332,,385177.485087991,6366201.01539349,-0.9492459999999999,44.323966,entrance,ign,2018-10-20
ban-position-48c1183c7f1340dfb51d4cfdd490bf52,ban-housenumber-8af8da9a30f441e882920e6dc4298ee5,40143_0005_1433,ban-group-0401d6e448a245c58ace5d1c78041868,401430005,1433,,Route d'Aurice,40250,Lamothe,40143,,407173.19311757706,6305735.21183885,-0.638804,43.789899,entrance,ign,2018-10-20
ban-position-a257f0ab5aa9498a95cccba3da9c2525,ban-housenumber-e72091195f6a4e6ebb55d1bae2d833d4,40273_0410_3,ban-group-ec41933717d340c49aecfccec6418c17,402730410,3,,Rue du Pré d'Alliot,40390,Saint-Martin-de-Seignanx,40273,,346201.993025181,6281132.02856464,-1.378103,43.540963,entrance,ign,2018-10-20
ban-position-6b3e428b7ff74102b1738e38966e3fe6,ban-housenumber-d4161b8ba7884f61bb89d71533a3169f,40287_0405_462,ban-group-55dc5883c20741f7a5b0a57630291243,402870405,462,,Route de Biscarrosse,40460,Sanguinet,40287,,374910.163973585,6382804.52474365,-1.088592,44.468531,entrance,ign,2018-10-20
ban-position-fa45b1738704467aaf77ae1bb14bd896,ban-housenumber-7bd5360d017744e5b630ffc8ceeff0fe,40046_0095_24,ban-group-76d0e80c767c49fe811664a6feb4e48b,400460095,24,,IMPASSE DE LA BARADE,40600,Biscarrosse,40046,,368531.214737721,6373952.93790108,-1.162808,44.38596,parcel,dgfip,2018-10-20
ban-position-845ae6d133124e0a94987ead3357e3ed,ban-housenumber-166f9b4814464db289d780fa132f8ae4,40184_0510_22_bis,ban-group-68d3ae23e74f4ed7b454dbd59cf182ca,401840510,22,BIS,Rue des Cigales,40200,Mimizan,40184,,356939.8,6354462.59999999,-1.29479769671479,44.2051877162864,entrance,ign,2019-02-01
ban-position-6caf3fd0f31b413fbfee84dbaee2964b,ban-housenumber-12bacb0b61db4d5e841b8b85f364cfa6,40192_1341_8,ban-group-875d3411f73b4f2fb3a2c8e3f7796855,401921341,8,,IMPASSE LOUIS,40000,Mont-de-Marsan,40192,,421020.13784951397,6315091.0548858,-0.472071,43.879616,parcel,dgfip,2018-10-20
ban-position-8d258a40cf304502b6d5f273e2c15fa4,ban-housenumber-18256383aa0144dcbbd1f7869fe1ba1f,40001_0840_20,ban-group-7e11dc5fd881498c803d5d42627c7778,400010840,20,,Avenue des Pyrénées,40800,Aire-sur-l'Adour,40001,,436768.997604938,6294444.83445409,-0.265677,43.700039000000004,parcel,dgfip,2018-10-20
ban-position-c352198328fc452eb3a921674a33ca53,ban-housenumber-326195481cc44c378fd49f1b07f554b2,40304_0477_147,ban-group-3192058c495c45d9b8b7472c7a6d34f0,403040477,147,,Avenue des Oyats,40150,Soorts-Hossegor,40304,,342484.185140147,6297085.34646162,-1.43509,43.682417,entrance,ign,2018-10-20
ban-position-dbe07d12984a4d49896299230d83137d,ban-housenumber-a4af821511254f278cdca65b1a971f63,40279_0550_1699,ban-group-fb514a3dabf2458fa28ca3307ff80d45,402790550,1699,,Avenue de la Résistance,40990,Saint-Paul-lès-Dax,40279,,371979.108367706,6300338.48440764,-1.0719530000000002,43.725937,segment,ign,2018-10-20
ban-position-0418d651d7e34b79aca5636e3b36ed99,ban-housenumber-90a30b73093e4c94afbcd56b7cc48eb5,40001_0480_4833,ban-group-dc82bd2f38074b0a9bd65f5676967189,400010480,4833,,Route de Guillon,40800,Aire-sur-l'Adour,40001,,437602.519435945,6290884.45680462,-0.253529,43.668339,entrance,ign,2018-10-20
ban-position-8f9fcd6e120a444db16308d45b449b74,ban-housenumber-fbc079820f2e492ba974ad73c079dc65,40119_0541_457,ban-group-2f381d6f51c14d61b9faea1f72881ba1,401190541,457,,Route de Doazit,40700,Hagetmau,40119,,409013.668649415,6291968.87965592,-0.608154,43.666914,segment,ign,2018-10-20
ban-position-966abe68c4614ecbaf4e335e2f269c17,ban-housenumber-c388130452e744b29ca1152ee39ae684,40110_0090_3,ban-group-655ee318b0af4fb28a46889424c45ed2,401100090,3,,Rue des Naz de Guit,40320,Geaune,40110,,427548.28832734295,6288218.61827968,-0.376632,43.640576,entrance,ign,2018-10-20
ban-position-9e8d79f01f3b4b15a0049b372595e93d,ban-housenumber-4bb017bdcd9d417faf00a1cf3c8f49bf,40276_0045_450,ban-group-c4f4dceb479c47e9aa9fbac9f4fc2d7c,402760045,450,,Route des Lacs,40550,Saint-Michel-Escalus,40276,,355169.475603407,6319374.52191244,-1.293058,43.888991,entrance,ign,2018-10-20
ban-position-81dae0820ee54e62967cebdb1f0fc32d,ban-housenumber-72269891c96a4aa9bcad71c5780f17e7,40065_0123_6,ban-group-662c6ea075b040f88ec1ebd08006ab8c,400650123,6,,RUE DE LA COUARTE,40130,Capbreton,40065,,344652.886502731,6293286.47712512,-1.405616,43.64938,parcel,dgfip,2018-10-20
ban-position-b617110119e949f9b69d085d231ee07f,ban-housenumber-dbcb27187dfe483ab38dee5105baa09b,40158_0073_6,ban-group-ecd4bfdbf7e24d55b6964c593a10b3d4,401580073,6,,Route de Gabarret,40240,Losse,40158,,455571.03884487,6334040.40402732,-0.051630999999999996,44.062852,parcel,dgfip,2018-10-20
ban-position-df147f27f2c3437880228ac11f394bb7,ban-housenumber-3806959fd09b4b5f85a8074b47ccb1a1,40298_0180_658,ban-group-e694e9500ff844d59f0a40477dfe2df1,402980180,658,,Route d'Hagetmau,40700,Serres-Gaston,40298,,415857.016246261,6290175.72931723,-0.522421,43.653575,parcel,dgfip,2018-10-20
ban-position-52b0b63d8c824865b7337abb47968671,ban-housenumber-fdb3e8b7a26b45759d6db65e27953a41,40065_1935_62,ban-group-2004a4aaee1941199c6c4232d6a1f96c,400651935,62,,Avenue Jean Lartigau,40130,Capbreton,40065,,342655.969808214,6291586.27050286,-1.429141,43.633101,parcel,dgfip,2018-10-20
ban-position-295c4946f32c474e82e1230e65b224b9,ban-housenumber-ab9bc33d631d415e98f1677b7ead626c,40065_4025_2,ban-group-c15b0c5f78f84e2e83acae3a594a7844,400654025,2,,Impasse des Mimosas,40130,Capbreton,40065,,342739.504734259,6293035.09641169,-1.429114,43.646159000000004,parcel,dgfip,2018-10-20
ban-position-1c1ffbb31f42428b85db394bc3abd24b,ban-housenumber-e0f6895fdc9d4db5b89751d9e562232a,40088_0055_6,ban-group-f3e5c5d3c02a4960befe38eb995c4445,400880055,6,,Rue de l'Aiglon,40100,Dax,40088,,372734.7664597,6299067.22868551,-1.061778,43.714863,entrance,ign,2018-10-20
ban-position-e0049a9304ce4e0ea1f562ddeb4d4776,ban-housenumber-2d47c837aaef4885ba3b4f410218abed,40187_0081_243,ban-group-392c9b7fc01a485e96c07143d56d2430,401870081,243,,RUE DU MARENSIN,40660,Moliets-et-Maa,40187,,347360.973896741,6315556.928778799,-1.3874360000000001,43.850827,parcel,dgfip,2019-02-07
ban-position-3ce2300d349b45a198a624f5df70b180,ban-housenumber-cda7fbcc259a4a3b8d7c23b2cdaecdbc,40187_A020_4,ban-group-8d8c42b1688a4b288885eac2c4b66067,40187A020,4,,IMPASSE DE L EGLISE,40660,Moliets-et-Maa,40187,,349648.776131686,6315277.40123706,-1.358838,43.849455,segment,ign,2018-10-20
ban-position-b19cfe1ee3494593b254885b51e10341,ban-housenumber-2e43348b1f0040ef98fac68099ac1786,40281_0585_766,ban-group-60e45a3c0b02435ab92386caa69c2a79,402810585,766,,Avenue des Matoles,40280,Saint-Pierre-du-Mont,40281,,419912.005718066,6314654.84107995,-0.485605,43.875254999999996,entrance,ign,2018-10-20
ban-position-c0e2cd0c07164057a512ffd99e3508c5,ban-housenumber-8c51f606e788458db52ffa8fb3a9e5c4,40088_0760_66,ban-group-5b670cd709e84b008cbf2bfc2446441d,400880760,66,,Avenue Francis Planté,40100,Dax,40088,,373950.801757545,6297476.10854882,-1.045701,43.701126,parcel,dgfip,2018-10-20
ban-position-4ac8f3b4e87e4b8dbb1b6d3a913ccb83,ban-housenumber-ceee42ba966640a5b3206a0b38429d9f,40255_0100_535,ban-group-4e035242121e4453969b456d799b544d,402550100,535,,ROUTE DU CRUM,40190,Saint-Cricq-Villeneuve,40255,,432255.712716797,6316835.48730692,-0.333323,43.899656,entrance,ign,2018-10-20
ban-position-27027c64295b4634a3c870317e4ebe3d,ban-housenumber-26d00f455e1b4e228496e4189267afc3,40283_0640_150_bis,ban-group-5bf3670b978447239e05b9fcc7a7c0f3,402830640,150,BIS,ROUTE LE KIAOU,40990,Saint-Vincent-de-Paul,40283,,377534.926664359,6302373.65002572,-1.004384,43.746782,entrance,ign,2018-10-20
ban-position-22167ca4f6d6470bb4c8dcc52233137e,ban-housenumber-eb1b2c6f16e14b51bb38840bb7843aee,40312_0720_19,ban-group-a25fd5e3d08e4815831c932f3b6dcd57,403120720,19,,RUE CHARLES BAUDELAIRE,40220,Tarnos,40312,,338673.931104256,6281308.17619545,-1.471186,43.538752,parcel,dgfip,2018-10-20
ban-position-496058756d1e40e89f132f0fc12d2ebe,ban-housenumber-2bf271344f4b48faab88a715f7272c34,40179_0320_427,ban-group-4c9c3e28f539444cb661c76b2717b505,401790320,427,,Route de Patesse,40990,Mées,40179,,368784.486539919,6298379.351088901,-1.110274,43.706843,entrance,ign,2018-10-20
ban-position-cfc77d22d5584134a247ef6535760406,ban-housenumber-c5bbdaf1cf2948369756a99517ed9ebb,40181_0184_120_x,ban-group-625a3a46781d4476b5005f1b1988de28,401810184,120,X,CHEMIN DE LA PANDELLE,40660,Messanges,40181,,347940.642770828,6309326.13639301,-1.375947,43.795132,parcel,dgfip,2018-10-20
ban-position-67208a407535480485e432db3cc3f76b,ban-housenumber-328c62e158ee49a9a45b5d434747ffc9,40123_0028_592,ban-group-a77cc22f24d54e4ba66e0b6b9cc10b34,401230028,592,,Rue Coyola,40990,Herm,40123,,367343.962828396,6309079.24491645,-1.135065,43.802319,entrance,ign,2018-10-20
ban-position-4e329449ea454881b0912f626c360838,ban-housenumber-a9d3b02a8f87406aa09a7c53caf796d7,40118_0058_1000,ban-group-e4189d973de140b4a875ba7f205c5bd6,401180058,1000,,Route de Lahontan,40290,Habas,40118,,381551.996735286,6280724.00529824,-0.941176,43.554044,parcel,dgfip,2019-02-07
ban-position-b1003a27160043248178d8aa106ab5f4,ban-housenumber-a1ede3f896fb4796ba21e63c687cbb88,40150_0054_175,ban-group-9cead04f8d364be79a2cd442f69931b6,401500054,175,,Chemin de Chapit,40550,Léon,40150,,351861.79532875604,6317663.73106053,-1.3329879999999998,43.871992999999996,segment,ign,2018-10-20
ban-position-d5b178d8c856414e9fa5a77d24f24419,ban-housenumber-c9014d7612f0411a9c15c9d5fd49cc2c,40264_0345_849,ban-group-b2f47f0069924b668ae05109fb740470,402640345,849,,Route des Marsacqs,40230,Saint-Jean-de-Marsacq,40264,,353426.690132712,6290120.24310775,-1.294922,43.625281,parcel,dgfip,2018-10-20
ban-position-b6627d792dab4c0780a0c68dfdd1ce45,ban-housenumber-ce5a97ee79934abb9b2269b6758f2efa,40001_0230_23,ban-group-c48d2c1c7695496886b46ccd0c6e2aea,400010230,23,,Rue Cesaire Dauge,40800,Aire-sur-l'Adour,40001,,436902.18271383794,6294730.51865438,-0.264173,43.702657,parcel,dgfip,2018-10-20
ban-position-c8d8015e7f3146a1b37d3089cdca5dcf,ban-housenumber-e31d12bd0d8f4d8ab418968613b9d917,40279_0109_4,ban-group-8765e01f5d1242cda00c4920c44d3ad1,402790109,4,,Impasse du Cottage,40990,Saint-Paul-lès-Dax,40279,,374306.429090742,6300466.04612886,-1.043194,43.728159000000005,entrance,ign,2018-10-20
ban-position-4abd32b62f744e92b7c199e1914c53f3,ban-housenumber-ceacc9f9c0ac4b24ac4b3d7aca7a40c8,40194_0160_21,ban-group-f23d245c52f54d9ab54dd1d3e7127a09,401940160,21,,Rue de Verdun,40380,Montfort-en-Chalosse,40194,,390723.24109423,6297722.00497833,-0.8380690000000001,43.710867,parcel,dgfip,2018-10-20
ban-position-38359cd0454149ddbc1fdb28eff78e0d,ban-housenumber-08a28bd8a06d4f1db733ed1f545505b3,40006_0155_1547,ban-group-64b3bfada684483eb05dd0b790bc0081,400060155,1547,,Route de Bezaudun,40110,Arengosse,40006,,396446.176973586,6328328.71435121,-0.785352,43.988464,entrance,ign,2018-10-20
ban-position-281c0235171e49149873fa3cf2724efd,ban-housenumber-2e1dba2c6ec14f68b2d5b8299ea26f12,40192_1009_3,ban-group-d2736725eb504f48992d79704e1eb9ed,401921009,3,,Impasse Gustave Courbet,40000,Mont-de-Marsan,40192,,422721.388539977,6316060.50816241,-0.451452,43.889003,entrance,ign,2018-10-20
ban-position-402b940df581404ba240ca72a20fe1bd,ban-housenumber-c3d5019233db445d90161d1d8705351c,40001_0079_15,ban-group-dc7c4abc61564ecfb185e8c246a0a356,400010079,15,,Rue de Biroy,40800,Aire-sur-l'Adour,40001,,437447.275145622,6295964.08053463,-0.258049,43.71395,parcel,dgfip,2018-10-20
ban-position-e33a81cdfa80487a9cd8f15bddf2dcfd,ban-housenumber-82f19d62137041c1ad29d2cbb33e412b,40122_0275_140,ban-group-e7f7fb113c204759a19aa9ed5e8d1edf,401220275,140,,Route de Saint-pierre-du-mont,40280,Haut-Mauco,40122,,414295.186612727,6309770.28752382,-0.552678,43.82909,parcel,dgfip,2018-10-20
ban-position-58bd33fc7fc3483c8d6d952eda5d37f2,ban-housenumber-0b285a88caa041f4afa0e85329ab1dbf,40304_0035_113,ban-group-ab6f7b0bdf2a46368e34f57e95f40e4d,403040035,113,,Avenue du Bearn,40150,Soorts-Hossegor,40304,,343353.096547143,6295324.27981209,-1.423111,43.667034,entrance,ign,2018-10-20
ban-position-1c66f15e7752413a82bd3137105a0e2c,ban-housenumber-395ce2a1bbfa41a8a3b12616d25e1e46,40281_0400_18,ban-group-24f1eb56ed4d4a648bb5c31ada31f2ff,402810400,18,,AVENUE DES FLORALIES,40280,Saint-Pierre-du-Mont,40281,,418110.381456754,6315260.68433281,-0.5083310000000001,43.879984,entrance,ign,2018-10-20
ban-position-0634f76b13274fbbb233a1830bad64df,ban-housenumber-1c10165525b141a184f4d7e44bb579fc,40157_0112_169,ban-group-58657a74144d4cf9a6659543529d091e,401570112,169,,Route des Lacs,40170,Lit-et-Mixe,40157,,358084.99301657,6331820.84487093,-1.265193,44.00226,parcel,dgfip,2018-10-20
ban-position-3eb9004e68b145b192d1f3e2f72eb81e,ban-housenumber-f79c5250d0334fcd8770a7b5d9db2493,40088_0960_4,ban-group-ca02ae38001643d7ad168f29668e0f68,400880960,4,,Rue de l'Hôpital,40100,Dax,40088,,373354.83290786797,6298132.97682673,-1.053501,43.706754,entrance,ign,2018-10-20
ban-position-d57866ec3f6c453d95bd27c13c36ea2b,ban-housenumber-eb2194f7f66e469a8f2c8b8e27cd0c9a,40296_0038_38,ban-group-24bd54e32bba4c5883420dedadbf8c01,402960038,38,,Avenue du Cassou,40510,Seignosse,40296,,347561.796958729,6297216.04943183,-1.37232,43.686138,entrance,ign,2018-10-20
ban-position-7fb5ca3fc375490db8ff73585d18504a,ban-housenumber-2bce75a9129e44c396d83917ec2049a7,40176_0029_462,ban-group-d32a5d5cf1bb4fdfae80561c6b40803c,401760029,462,,CHEMIN D ESPERANCE,40240,Mauvezin-d'Armagnac,40176,,448201.251030775,6322916.48448661,-0.13802899999999999,43.960215000000005,parcel,dgfip,2018-10-20
ban-position-7b05a5c20b654fa193b5ccdb01d9bbf9,ban-housenumber-24ca20a4cdd74480954e6b1b624a69af,40181_0122_4,ban-group-ede504dd36d1414f9cd829bfd2fe0a0d,401810122,4,,IMPASSE DES GRIVES,40660,Messanges,40181,,347223.096545385,6311745.06390654,-1.386516,43.816508,parcel,dgfip,2018-10-20
ban-position-91216ccf2b284e628e91dd55ab9a9e8a,ban-housenumber-1c10bb00b7cd4be7ba158573c19e0498,40300_0038_2,ban-group-a8f9b975a9bd4032a8a009324fcb3327,403000038,2,,IMPASSE DES ECUREUILS,40180,Seyresse,40300,,372174.681125787,6295949.5259615,-1.066726,43.686587,parcel,dgfip,2018-10-20
ban-position-86344ac8023548c48dfba07d25bf226c,ban-housenumber-d91b0774222348e39cb5b65a56a68d59,40184_0250_13,ban-group-66f1f2a9a0ca4b9dace5de0f8fcdff52,401840250,13,,Rue des Bruyères,40200,Mimizan,40184,,357488.28400534,6354513.12631728,-1.287979,44.205909999999996,parcel,dgfip,2018-10-20
ban-position-4a409ac4c2b94187ba5f82c3a3ace87a,ban-housenumber-ef1b382ffb3a442b8ec49a2e3491359f,40264_0410_1040,ban-group-5dc9f2a4607d4b948ac8d55428bdcf5c,402640410,1040,,Route du Stade,40230,Saint-Jean-de-Marsacq,40264,,356710.59339003795,6290647.60413635,-1.254657,43.631617999999996,parcel,dgfip,2018-10-20
ban-position-0b96ef4a0aa94b24adfc8b34edef6bd9,ban-housenumber-fe2e39a285ac4716ae46ace4b6f8d9b3,40317_0044_5,ban-group-6ad099e98c3a46e89b81acd29d9ddd40,403170044,5,,Avenue des Chenes-lieges,40230,Tosse,40317,,351264.714838297,6296860.73610063,-1.326233,43.684779999999996,parcel,dgfip,2018-10-20
ban-position-a03fc605fd014c70819f3341ff839675,ban-housenumber-8eeaa39978844bdabf93a1874a8ebbd7,40088_0860_112,ban-group-c7613806ba5440dcb18f9c94f51272aa,400880860,112,,Avenue Georges Clémenceau,40100,Dax,40088,,374077.898749881,6298164.74838237,-1.044564,43.707373,parcel,dgfip,2018-10-20
ban-position-575aba4beef5416da08df82ddbf59ddd,ban-housenumber-8a0a58c976104d2fa70694d7329e8e23,40187_A006_91,ban-group-1b9d25c6957043a984b13eb40fc323b4,40187A006,91,,RES GOLFOCEAN,40660,Moliets-et-Maa,40187,,348793.433919021,6314751.12063201,-1.3690959999999999,43.844301,parcel,dgfip,2018-10-20
ban-position-2eb9dcfdb36b4642a3d6d355f7fb3b70,ban-housenumber-71b8aaf255094f4d92ab880f11d9c5fd,40261_0220_3,ban-group-6b058d7764dc4f6cb00727acc88b6b5e,402610220,3,,Route de Dax,40230,Saint-Geours-de-Maremne,40261,,359238.315262559,6296764.77921451,-1.227444,43.687802000000005,segment,ign,2018-10-20
ban-position-561ee2c46eb449168c9796cdf5e05cf4,ban-housenumber-525e367a5ce34bccb683c00666efce2a,40192_1402_1597,ban-group-6b66200bb9424021be405453bd0eda36,401921402,1597,,Avenue du Maréchal Juin,40000,Mont-de-Marsan,40192,,421087.24186937796,6318169.63880759,-0.472921,43.907321,parcel,dgfip,2018-10-20
ban-position-d236a009a195406680edc0a71ec12624,ban-housenumber-518bdfef52924696894cd4553276d662,40310_1550_34,ban-group-73c5243e9caa43368490c42c73158df1,403101550,34,,Rue du Collège,40140,Soustons,40310,,351013.995289215,6304345.76342479,-1.334429,43.751908,parcel,dgfip,2018-10-20
ban-position-49689e70d24b4f2ebd6735c1d07370e5,ban-housenumber-b42438797a9f4e9ab65842dfebcce6bd,40293_0165_0,ban-group-bea37f28b6a149ab9b888d7ccb0c48a0,402930165,0,,Route de Miqueou,40180,Saubusse,40293,,362089.337831821,6294337.95750222,-1.190545,43.667363,segment,ign,2018-10-20
ban-position-ba27ff59d6284a04ad558e2d19bbe78a,ban-housenumber-db8a15007e8649ff9d1e5b25933eb2ef,40142_0088_130,ban-group-b9b7370906884750af206d2c540b6962,401420088,130,,Rue du Champ du Baria,40465,Laluque,40142,,378832.56988987705,6314533.01083277,-0.9959319999999999,43.856653,entrance,ign,2018-10-20
ban-position-4d83cf79597b488996dfff146373ae89,ban-housenumber-d892ef6eedf348f0840adee387ace97e,40065_2070_12,ban-group-ce5c15ea6ee3467a97335e564905e0b5,400652070,12,,Rue Paul Marguerite,40130,Capbreton,40065,,343436.44980491,6293197.02887403,-1.420604,43.647965,parcel,dgfip,2018-10-20
ban-position-81f01d4595884d18a9db14306396da9f,ban-housenumber-087fc24fa6814b98b98aea086cb07932,40192_1357_1_b,ban-group-20d1ea63e41e440ba2d877ace19c1c26,401921357,1,B,IMPASSE LUGARDON,40000,Mont-de-Marsan,40192,,418309.68539684603,6316716.71645012,-0.5066579999999999,43.893153999999996,parcel,dgfip,2019-10-31
ban-position-c4e2653056094f8e8b3187c922221fb2,ban-housenumber-c5ccb9cd84884e07ae6d2c77f1a2e90f,40192_1405_79,ban-group-7784f1394f084e3fac704b6e132c8811,401921405,79,,Avenue du Maréchal Foch,40000,Mont-de-Marsan,40192,,419137.528153785,6316758.50973682,-0.496389,43.89386,parcel,dgfip,2018-10-20
ban-position-29c7aeb94c19475ab6021565c141e8f4,ban-housenumber-0306f12a77694ca1b05ec747745d8916,40192_0643_9,ban-group-6e59f69de4e8472182953a7de741e1fb,401920643,9,,Allée Denis Dicharry,40000,Mont-de-Marsan,40192,,422122.487210479,6315180.68046223,-0.45841800000000005,43.880857,entrance,ign,2018-10-20
